direccion_completa,lat,long,estado,horas,nombre,fecha
"Sinclair 3100, Buenos Aires, Ciudad Autónoma de Buenos Aires, Argentina","-34.5739608","-58.422962","hay-luz",\N,"Palermo","2013-12-24 03:03:30"
"La Rioja 2001, Parque Patricios, Buenos Aires, Ciudad Autónoma de Buenos Aires, Argentina","-34.6347373","-58.4059043","hay-luz",\N,"Parque Patricios","2013-12-24 03:03:46"
"Av Cerviño 4700, Buenos Aires, Ciudad Autónoma de Buenos Aires, Argentina","-34.5750915","-58.4235031","hay-luz",\N,"Palermo","2013-12-24 03:04:44"
"Mariano Acha 1063, Buenos Aires, Ciudad Autónoma de Buenos Aires, Argentina","-34.5827995","-58.4720314","corte-amplio","12","Villa Ortúzar","2013-12-24 09:27:29"
"Ceretti 2515, Buenos Aires, Ciudad Autónoma de Buenos Aires, Argentina","-34.5771359","-58.4938704","corte-cuadra","5","Villa Urquiza","2013-12-24 09:31:11"
"Sinclair 3139, Buenos Aires, Ciudad Autónoma de Buenos Aires, Argentina","-34.5736377","-58.4227337","corte-amplio","2","Palermo","2013-12-24 10:59:14"
"Sinclair 2500, Buenos Aires, Ciudad Autónoma de Buenos Aires, Argentina","-34.5763394","-58.4242608","corte-amplio","23","Palermo","2013-12-24 11:03:40"
"Antonio Beruti 2401, Buenos Aires, Ciudad Autónoma de Buenos Aires, Argentina","-34.5929118","-58.4003608","hay-luz",\N,"Recoleta","2013-12-24 15:25:46"
"Antonio Beruti 2300, Buenos Aires, Ciudad Autónoma de Buenos Aires, Argentina","-34.5934071","-58.3991771","hay-luz",\N,"Recoleta","2013-12-24 15:26:47"
"Mariano Acha 1063, Buenos Aires, Ciudad Autónoma de Buenos Aires, Argentina","-34.5827995","-58.4720314","corte-amplio","4","Villa Ortúzar","2013-12-24 15:29:52"
"Antonio Beruti 2400, Buenos Aires, Ciudad Autónoma de Buenos Aires, Argentina","-34.5929482","-58.4003522","hay-luz",\N,"Recoleta","2013-12-24 15:29:53"
"Sinclair 3139, Buenos Aires, Ciudad Autónoma de Buenos Aires, Argentina","-34.5736377","-58.4227337","hay-luz",\N,"Palermo","2013-12-24 15:40:25"
"Cullen 5690, Buenos Aires, Ciudad Autónoma de Buenos Aires, Argentina","-34.5764214","-58.4943187","corte-amplio","5","Villa Urquiza","2013-12-24 16:19:13"
"O Higgins 1695, Buenos Aires, Ciudad Autónoma de Buenos Aires, Argentina","-34.5636434","-58.4496623","hay-luz",\N,"Belgrano","2013-12-24 16:29:00"
"Av Directorio 3000, Buenos Aires, Ciudad Autónoma de Buenos Aires, Argentina","-34.6359848","-58.4690032","corte-amplio","48","Flores","2013-12-24 16:48:45"
"Av Directorio 2900, Buenos Aires, Ciudad Autónoma de Buenos Aires, Argentina","-34.6355427","-58.4674644","corte-amplio","36","Flores","2013-12-24 16:50:00"
"Mariano Acha 1063, Buenos Aires, Ciudad Autónoma de Buenos Aires, Argentina","-34.5827995","-58.4720314","hay-luz",\N,"Villa Ortúzar","2013-12-24 16:54:41"
"Lucio Meléndez 2023, Don Torcuato, Buenos Aires, Argentina","-34.4976225","-58.6263603","hay-luz",\N,"Tigre","2013-12-24 16:59:22"
"Cullen 5690, Buenos Aires, Ciudad Autónoma de Buenos Aires, Argentina","-34.5764214","-58.4943187","hay-luz",\N,"Villa Urquiza","2013-12-24 17:10:07"
"Mariano Acha 1063, Buenos Aires, Ciudad Autónoma de Buenos Aires, Argentina","-34.5827995","-58.4720314","hay-luz",\N,"Villa Ortúzar","2013-12-24 17:14:51"
"Mariano Acha 1063, Buenos Aires, Ciudad Autónoma de Buenos Aires, Argentina","-34.5827995","-58.4720314","hay-luz",\N,"Villa Ortúzar","2013-12-24 17:21:59"
"Mariano Acha 1063, Buenos Aires, Ciudad Autónoma de Buenos Aires, Argentina","-34.5827995","-58.4720314","hay-luz",\N,"Villa Ortúzar","2013-12-24 17:22:35"
"Ceretti 2515, Buenos Aires, Ciudad Autónoma de Buenos Aires, Argentina","-34.5771359","-58.4938704","hay-luz",\N,"Villa Urquiza","2013-12-24 17:23:34"
"Mariano Acha 1063, Buenos Aires, Ciudad Autónoma de Buenos Aires, Argentina","-34.5827995","-58.4720314","hay-luz",\N,"Villa Ortúzar","2013-12-24 17:24:29"
"Cullen 5690, Buenos Aires, Ciudad Autónoma de Buenos Aires, Argentina","-34.5764214","-58.4943187","hay-luz",\N,"Villa Urquiza","2013-12-24 17:27:05"
"Marcos Sastre, Buenos Aires, Ciudad Autónoma de Buenos Aires, Argentina","-34.6132812","-58.5047493","hay-luz",\N,"Monte Castro","2013-12-24 17:27:10"
"Sinclair 3139, Buenos Aires, Ciudad Autónoma de Buenos Aires, Argentina","-34.5736377","-58.4227337","hay-luz",\N,"Palermo","2013-12-24 17:31:10"
"Sinclair 3300, Buenos Aires, Ciudad Autónoma de Buenos Aires, Argentina","-34.5718261","-58.4217654","hay-luz",\N,"Palermo","2013-12-24 17:33:39"
"Demaría 4600, Buenos Aires, Ciudad Autónoma de Buenos Aires, Argentina","-34.5744815","-58.4217312","hay-luz",\N,"Palermo","2013-12-24 17:41:10"
"Sinclair, Buenos Aires, Ciudad Autónoma de Buenos Aires, Argentina","-34.5739555","-58.4229393","hay-luz",\N,"Palermo","2013-12-24 17:42:09"
"Donado 810, Buenos Aires, Ciudad Autónoma de Buenos Aires, Argentina","-34.5868048","-58.4708619","hay-luz",\N,"Villa Ortúzar","2013-12-24 17:47:39"
"Marcos Sastre, Buenos Aires, Ciudad Autónoma de Buenos Aires, Argentina","-34.6132812","-58.5047493","hay-luz",\N,"Monte Castro","2013-12-24 18:02:10"
"Quirno 400, Buenos Aires, Ciudad Autónoma de Buenos Aires, Argentina","-34.6359595","-58.4690119","hay-luz",\N,"Flores","2013-12-24 18:15:47"
"Mendoza 5440, Buenos Aires, Ciudad Autónoma de Buenos Aires, Argentina","-34.5791425","-58.4871523","hay-luz",\N,"Villa Urquiza","2013-12-24 18:35:55"
"Baigorria 2370, Buenos Aires, Ciudad Autónoma de Buenos Aires, Argentina","-34.598147","-58.4833819","hay-luz",\N,"Villa del Parque","2013-12-24 18:36:41"
"Av Asamblea 34, Buenos Aires, Ciudad Autónoma de Buenos Aires, Argentina","-34.6315229","-58.4262411","corte-amplio","3","Parque Chacabuco","2013-12-24 18:37:30"
"Av Caseros, Buenos Aires, Ciudad Autónoma de Buenos Aires, Argentina","-34.6354446","-58.396183","corte-amplio","6","Parque Patricios","2013-12-24 18:38:23"
"Hortiguera 400, Buenos Aires, Ciudad Autónoma de Buenos Aires, Argentina","-34.6271412","-58.4454915","hay-luz",\N,"Caballito","2013-12-24 18:38:35"
"Eduardo Acevedo 535, Buenos Aires, Ciudad Autónoma de Buenos Aires, Argentina","-34.6096834","-58.432474","hay-luz",\N,"Caballito","2013-12-24 18:41:23"
"Sinclair 3139, Buenos Aires, Ciudad Autónoma de Buenos Aires, Argentina","-34.5736377","-58.4227337","hay-luz","3","Palermo","2013-12-24 18:41:50"
"Serrano 439, Buenos Aires, Ciudad Autónoma de Buenos Aires, Argentina","-34.5969247","-58.4432479","corte-amplio","48","Villa Crespo","2013-12-24 18:42:06"
"Av Lastra, Buenos Aires, Argentina","-34.6073418","-58.5216675","corte-amplio","48","Villa Devoto","2013-12-24 18:47:24"
"Besares 4705, Buenos Aires, Ciudad Autónoma de Buenos Aires, Argentina","-34.5549763","-58.4925464","hay-luz",\N,"Saavedra","2013-12-24 18:49:55"
"Olleros 1828, Buenos Aires, Ciudad Autónoma de Buenos Aires, Argentina","-34.5655398","-58.4385596","hay-luz",\N,"Palermo","2013-12-24 18:58:44"
"Av Angel Gallardo 1073, Buenos Aires, Ciudad Autónoma de Buenos Aires, Argentina","-34.6072178","-58.4452856","hay-luz",\N,"Villa Crespo","2013-12-24 19:04:33"
"Av Callao 900, Buenos Aires, Ciudad Autónoma de Buenos Aires, Argentina","-34.5986957","-58.3930498","hay-luz",\N,"Recoleta","2013-12-24 19:07:05"
"Fraga 86, Buenos Aires, Ciudad Autónoma de Buenos Aires, Argentina","-34.587298","-58.4466054","hay-luz",\N,"Chacarita","2013-12-24 19:13:22"
"Espinosa 2015, Buenos Aires, Ciudad Autónoma de Buenos Aires, Argentina","-34.6026298","-58.4598167","hay-luz",\N,"Paternal","2013-12-24 19:19:03"
"Barzana 1200, Buenos Aires, Ciudad Autónoma de Buenos Aires, Argentina","-34.5892371","-58.4797235","hay-luz",\N,"Parque Chas","2013-12-24 19:24:36"
"Gral. Miguel Soler 259, Malvinas Argentinas, Buenos Aires, Argentina","-34.8097432","-58.405775","hay-luz",\N,"Almirante Brown","2013-12-24 19:25:01"
"Larrea 725, Buenos Aires, Ciudad Autónoma de Buenos Aires, Argentina","-34.6005701","-58.4023896","corte-cuadra","168","Balvanera","2013-12-24 19:26:43"
"Ceferino Ramírez, Adrogué, Buenos Aires, Argentina","-34.8035355","-58.3831826","hay-luz",\N,"Almirante Brown","2013-12-24 19:28:48"
"33 Orientales, Buenos Aires, Ciudad Autónoma de Buenos Aires, Argentina","-34.6264153","-58.4228554","corte-cuadra","2","Boedo","2013-12-24 19:33:50"
"Uspallata 560, Buenos Aires, Ciudad Autónoma de Buenos Aires, Argentina","-34.6299196","-58.3724531","hay-luz",\N,"Barracas","2013-12-24 19:35:37"
"Av Chiclana 3785, Buenos Aires, Ciudad Autónoma de Buenos Aires, Argentina","-34.6382048","-58.4171547","hay-luz",\N,"Boedo","2013-12-24 19:35:56"
"Av Manuel Montes de Oca 446, Buenos Aires, Ciudad Autónoma de Buenos Aires, Argentina","-34.6337972","-58.3755868","hay-luz",\N,"Barracas","2013-12-24 19:39:17"
"Primera Junta, Ciudad Madero, Buenos Aires, Argentina","-34.6887131","-58.5011101","hay-luz",\N,"La Matanza","2013-12-24 19:43:44"
"Agustín de Vedia, Buenos Aires, Ciudad Autónoma de Buenos Aires, Argentina","-34.6515579","-58.4280968","hay-luz",\N,"Nueva Pompeya","2013-12-24 19:44:41"
"Gral. Nazar, Aldo Bonzi, Buenos Aires, Argentina","-34.7081528","-58.5200615","hay-luz",\N,"La Matanza","2013-12-24 19:49:36"
"Arce 570, Buenos Aires, Ciudad Autónoma de Buenos Aires, Argentina","-34.5695962","-58.4331288","hay-luz",\N,"Palermo","2013-12-24 19:52:10"
"Av Eva Perón 1315, Buenos Aires, Ciudad Autónoma de Buenos Aires, Argentina","-34.6320793","-58.443651","hay-luz",\N,"Parque Chacabuco","2013-12-24 19:52:11"
"Besares 4705, Buenos Aires, Ciudad Autónoma de Buenos Aires, Argentina","-34.5549763","-58.4925464","hay-luz",\N,"Saavedra","2013-12-24 19:57:07"
"Bahía Blanca 1838, Buenos Aires, Ciudad Autónoma de Buenos Aires, Argentina","-34.6172699","-58.4940566","corte-cuadra",\N,"Monte Castro","2013-12-24 19:57:15"
"Av Raúl Scalabrini Ortiz 1771, Buenos Aires, Ciudad Autónoma de Buenos Aires, Argentina","-34.5898936","-58.4234016","hay-luz",\N,"Palermo","2013-12-24 19:58:31"
"Concordia 1500, Buenos Aires, Ciudad Autónoma de Buenos Aires, Argentina","-34.618024","-58.4858457","corte-cuadra","2","Villa Santa Rita","2013-12-24 19:58:33"
"Av del Libertador 4444, Buenos Aires, Ciudad Autónoma de Buenos Aires, Argentina","-34.5671368","-58.4306546","hay-luz",\N,"Palermo","2013-12-24 20:03:27"
"Juan María Gutiérrez 3771, Buenos Aires, Ciudad Autónoma de Buenos Aires, Argentina","-34.5809045","-58.4132138","hay-luz",\N,"Palermo","2013-12-24 20:04:20"
"Av Acoyte 837, Buenos Aires, Ciudad Autónoma de Buenos Aires, Argentina","-34.6084037","-58.4401027","corte-cuadra",\N,"Caballito","2013-12-24 20:05:13"
"Arce 555, Buenos Aires, Ciudad Autónoma de Buenos Aires, Argentina","-34.5696558","-58.4329632","corte-amplio","3","Palermo","2013-12-24 20:05:18"
"Lavalleja 64, Buenos Aires, Ciudad Autónoma de Buenos Aires, Argentina","-34.6032992","-58.4381477","hay-luz",\N,"Villa Crespo","2013-12-24 20:06:46"
"Terrero, Buenos Aires, Ciudad Autónoma de Buenos Aires, Argentina","-34.6120186","-58.4637032","hay-luz",\N,"Villa Gral. Mitre","2013-12-24 20:09:50"
"Av San Juan, Buenos Aires, Ciudad Autónoma de Buenos Aires, Argentina","-34.6230888","-58.3966904","hay-luz",\N,"San Cristóbal","2013-12-24 20:14:37"
"Altolaguirre 1980, Buenos Aires, Ciudad Autónoma de Buenos Aires, Argentina","-34.5819367","-58.486945","corte-amplio","3","Villa Urquiza","2013-12-24 20:15:40"
"Boulogne Sur Mer 279, Buenos Aires, Ciudad Autónoma de Buenos Aires, Argentina","-34.6068957","-58.407396","hay-luz",\N,"Balvanera","2013-12-24 20:20:47"
"Gorriti 4600, Buenos Aires, Ciudad Autónoma de Buenos Aires, Argentina","-34.5921994","-58.4268696","hay-luz",\N,"Palermo","2013-12-24 20:22:51"
"Liniers 188, Monte Grande, Buenos Aires, Argentina","-34.8243939","-58.4586306","hay-luz",\N,"Esteban Echeverría","2013-12-24 20:25:41"
"Banfield, Buenos Aires, Argentina","-34.7446112","-58.3917316","hay-luz",\N,"Lomas de Zamora","2013-12-24 20:29:08"
"Uruguay, Victoria, Buenos Aires, Argentina","-34.4671021","-58.5574265","corte-amplio","100","San Fernando","2013-12-24 20:31:17"
"Palermo - Buenos Aires, Argentina","-34.5888889","-58.4305556","corte-amplio","24","Palermo","2013-12-24 20:31:23"
"Uruguay, Victoria, Buenos Aires, Argentina","-34.4671021","-58.5574265","hay-luz",\N,"San Fernando","2013-12-24 20:32:02"
"Gral. Alvear, Martínez, Buenos Aires, Argentina","-34.4850693","-58.4913254","hay-luz",\N,"San Isidro","2013-12-24 20:32:07"
"Batalla de Callao, Florencio Varela, Buenos Aires, Argentina","-34.7803459","-58.2725182","hay-luz",\N,"Florencio Varela","2013-12-24 20:33:24"
"Gurruchaga 576, Buenos Aires, Ciudad Autónoma de Buenos Aires, Argentina","-34.5965344","-58.4405831","hay-luz",\N,"Villa Crespo","2013-12-24 20:35:04"
"Franklin 7763, Rosario, Santa Fe, Argentina","-32.9185289","-60.7299826","hay-luz",\N,"Rosario","2013-12-24 20:35:11"
"33 Orientales, Beccar, Buenos Aires, Argentina","-34.4543533","-58.5251618","hay-luz",\N,"San Isidro","2013-12-24 20:39:06"
"Arenales 3069, Buenos Aires, Ciudad Autónoma de Buenos Aires, Argentina","-34.5896302","-58.4077469","hay-luz",\N,"Recoleta","2013-12-24 20:39:48"
"Franklin 500, Buenos Aires, Ciudad Autónoma de Buenos Aires, Argentina","-34.6077574","-58.4387183","corte-amplio","25","Caballito","2013-12-24 20:41:28"
"Thorne 429, Buenos Aires, Ciudad Autónoma de Buenos Aires, Argentina","-34.6296895","-58.450902","hay-luz",\N,"Caballito","2013-12-24 20:43:25"
"Julián Alvarez, Buenos Aires, Ciudad Autónoma de Buenos Aires, Argentina","-34.5934906","-58.4251785","corte-amplio","72","Palermo","2013-12-24 20:43:37"
"Villa Maipú, Buenos Aires, Argentina","-34.5687326","-58.5202126","corte-amplio","1","General San Martín","2013-12-24 20:44:09"
"Bauness, Buenos Aires, Ciudad Autónoma de Buenos Aires, Argentina","-34.5840874","-58.4803734","corte-cuadra","2","Parque Chas","2013-12-24 20:47:17"
"Juncal 3341, Buenos Aires, Ciudad Autónoma de Buenos Aires, Argentina","-34.5849592","-58.4112563","hay-luz",\N,"Palermo","2013-12-24 20:48:02"
"Gorriti 3685, Buenos Aires, Ciudad Autónoma de Buenos Aires, Argentina","-34.5955239","-58.4165144","hay-luz",\N,"Palermo","2013-12-24 20:49:25"
"Marcos Sastre, Buenos Aires, Ciudad Autónoma de Buenos Aires, Argentina","-34.6132812","-58.5047493","hay-luz",\N,"Monte Castro","2013-12-24 20:52:27"
"Serrano, Buenos Aires, Ciudad Autónoma de Buenos Aires, Argentina","-34.5955238","-58.4411736","hay-luz",\N,"Villa Crespo","2013-12-24 20:52:41"
"Lanús Oeste, Buenos Aires, Argentina","-34.6994247","-58.4115448","hay-luz",\N,"Lanús","2013-12-24 20:54:24"
"Cramer 2500, Buenos Aires, Ciudad Autónoma de Buenos Aires, Argentina","-34.5610338","-58.4645088","corte-cuadra","2","Belgrano","2013-12-24 20:54:38"
"Pres. Quintana 1554, Lanús Oeste, Buenos Aires, Argentina","-34.7074637","-58.4140684","corte-amplio","9","Lanús","2013-12-24 20:55:13"
"Allende 4407, Buenos Aires, Argentina","-34.6024117","-58.5227094","hay-luz",\N,"Villa Devoto","2013-12-24 21:00:17"
"Av Cabildo 300, Buenos Aires, Ciudad Autónoma de Buenos Aires, Argentina","-34.5727255","-58.4396648","hay-luz",\N,"Palermo","2013-12-24 21:01:20"
"La Pampa 5000, Buenos Aires, Ciudad Autónoma de Buenos Aires, Argentina","-34.5791105","-58.4789712","hay-luz",\N,"Villa Ortúzar","2013-12-24 21:04:39"
"Santos Dumont 3330, Buenos Aires, Ciudad Autónoma de Buenos Aires, Argentina","-34.5811051","-58.4466018","hay-luz",\N,"Colegiales","2013-12-24 21:22:28"
"Charcas 3001, Buenos Aires, Ciudad Autónoma de Buenos Aires, Argentina","-34.5930302","-58.4084495","corte-amplio","78","Recoleta","2013-12-24 21:23:16"
"Gallo 606, Buenos Aires, Ciudad Autónoma de Buenos Aires, Argentina","-34.6024634","-58.4128103","hay-luz",\N,"Almagro","2013-12-24 21:25:37"
"Thames 1000, Buenos Aires, Ciudad Autónoma de Buenos Aires, Argentina","-34.5920386","-58.4374834","corte-amplio","98","Villa Crespo","2013-12-24 21:29:40"
"Mozart 610, Buenos Aires, Ciudad Autónoma de Buenos Aires, Argentina","-34.6440825","-58.4892593","hay-luz",\N,"Parque Avellaneda","2013-12-24 21:38:24"
"Domingo Faustino Sarmiento 100, Monte Grande, Buenos Aires, Argentina","-34.812017","-58.4663819","corte-amplio","24","Esteban Echeverría","2013-12-24 21:47:28"
"Cramer 2500, Buenos Aires, Ciudad Autónoma de Buenos Aires, Argentina","-34.5610338","-58.4645088","corte-amplio","3","Belgrano","2013-12-24 21:47:28"
"Av Juan Bautista Alberdi, Buenos Aires, Ciudad Autónoma de Buenos Aires, Argentina","-34.6364784","-58.4773331","corte-amplio","3","Floresta","2013-12-24 21:55:11"
"Vélez Sarsfield - Buenos Aires, Ciudad Autónoma de Buenos Aires, Argentina","-34.6333333","-58.4833333","corte-amplio","24","Vélez Sársfield","2013-12-24 21:57:09"
"Lanús Este, Buenos Aires, Argentina","-34.7132721","-58.3710861","corte-amplio","16","Lanús","2013-12-24 22:29:08"
"Sarachaga 5200, Buenos Aires, Ciudad Autónoma de Buenos Aires, Argentina","-34.6337684","-58.4986889","hay-luz",\N,"Villa Luro","2013-12-24 22:49:09"
"Puerto de Palos, Villa Dominico, Buenos Aires, Argentina","-34.6953239","-58.3397828","hay-luz",\N,"Avellaneda","2013-12-24 22:49:56"
"Av San Pedrito 103, Buenos Aires, Ciudad Autónoma de Buenos Aires, Argentina","-34.6321886","-58.4690034","corte-cuadra","12","Flores","2013-12-24 22:55:22"
"Combate de Los Pozos 400, Buenos Aires, Ciudad Autónoma de Buenos Aires, Argentina","-34.6139215","-58.3932125","corte-cuadra","144","Balvanera","2013-12-24 23:03:45"
"José Ingenieros, Beccar, Buenos Aires, Argentina","-34.4709053","-58.5474091","hay-luz",\N,"San Isidro","2013-12-24 23:06:22"
"Profesor Mair, Quilmes Oeste, Buenos Aires, Argentina","-34.7673225","-58.2820206","corte-amplio","2","Quilmes","2013-12-24 23:22:14"
"Cramer 2500, Buenos Aires, Ciudad Autónoma de Buenos Aires, Argentina","-34.5610338","-58.4645088","corte-cuadra","4","Belgrano","2013-12-24 23:30:00"
"Fragata Pres. Sarmiento, Buenos Aires, Ciudad Autónoma de Buenos Aires, Argentina","-34.6108055","-58.4555931","corte-amplio","6","Caballito","2013-12-24 23:49:11"
"Monte Grande, Buenos Aires, Argentina","-34.8271786","-58.4620124","corte-amplio","24","Esteban Echeverría","2013-12-25 00:48:01"
"Av Independencia, Buenos Aires, Ciudad Autónoma de Buenos Aires, Argentina","-34.6184692","-58.3975296","corte-amplio","5","San Cristóbal","2013-12-25 00:48:14"
"Ezeiza, Buenos Aires, Argentina","-34.8537327","-58.5228619","corte-amplio","24","Ezeiza","2013-12-25 00:48:21"
"Franklin 661, Buenos Aires, Ciudad Autónoma de Buenos Aires, Argentina","-34.6077051","-58.441482","hay-luz",\N,"Caballito","2013-12-25 01:41:31"
"Bernal, Buenos Aires, Argentina","-34.7108688","-58.2800827","hay-luz",\N,"Quilmes","2013-12-25 01:47:14"
"Charcas 2985, Buenos Aires, Ciudad Autónoma de Buenos Aires, Argentina","-34.593109","-58.4081685","hay-luz",\N,"Recoleta","2013-12-25 01:56:38"
"Quilmes Oeste, Buenos Aires, Argentina","-34.7431829","-58.2975667","corte-amplio","3","Quilmes","2013-12-25 02:05:01"
"Rivadavia 2151, Benavídez, Buenos Aires, Argentina","-34.4122108","-58.6967392","hay-luz",\N,"Tigre","2013-12-25 02:13:35"
"Marcos Sastre 3837, Buenos Aires, Ciudad Autónoma de Buenos Aires, Argentina","-34.6096542","-58.4986831","hay-luz",\N,"Villa del Parque","2013-12-25 02:47:04"
"Puente Pueyrredón, Argentina","-34.6569366","-58.3705788","corte-cuadra","1","Avellaneda","2013-12-25 03:08:29"
"Armenia 2300, Buenos Aires, Ciudad Autónoma de Buenos Aires, Argentina","-34.5852967","-58.4209576","hay-luz",\N,"Palermo","2013-12-25 03:09:50"
"Gurruchaga 592, Buenos Aires, Ciudad Autónoma de Buenos Aires, Argentina","-34.5963854","-58.4403556","corte-amplio","1","Villa Crespo","2013-12-25 03:12:22"
"Alberto Larroque 819, Banfield, Buenos Aires, Argentina","-34.7438058","-58.4068169","hay-luz",\N,"Lomas de Zamora","2013-12-25 03:27:04"
"Lavalleja 488, Buenos Aires, Ciudad Autónoma de Buenos Aires, Argentina","-34.6008943","-58.4344494","corte-amplio","3","Villa Crespo","2013-12-25 03:37:10"
"Dellepiane Oeste, Buenos Aires, Ciudad Autónoma de Buenos Aires, Argentina","-34.6682052","-58.4756655","corte-amplio","5","Villa Lugano","2013-12-25 03:45:06"
"Cramer, Ramos Mejía, Buenos Aires, Argentina","-34.6371307","-58.5545273","hay-luz",\N,"La Matanza","2013-12-25 04:11:20"
"Av Avellaneda 2500, Buenos Aires, Ciudad Autónoma de Buenos Aires, Argentina","-34.6246948","-58.4660928","hay-luz",\N,"Flores","2013-12-25 04:38:05"
"Cramer 2500, Buenos Aires, Ciudad Autónoma de Buenos Aires, Argentina","-34.5610338","-58.4645088","corte-cuadra","10","Belgrano","2013-12-25 07:52:31"
"Concordia 4800, Buenos Aires, Ciudad Autónoma de Buenos Aires, Argentina","-34.590342","-58.5109586","corte-amplio","6","Villa Devoto","2013-12-25 08:29:18"
"Av Estado de Israel 4577, Buenos Aires, Ciudad Autónoma de Buenos Aires, Argentina","-34.5995766","-58.429983","hay-luz",\N,"Villa Crespo","2013-12-25 09:36:43"
"Virrey Olaguer y Feliu, Buenos Aires, Ciudad Autónoma de Buenos Aires, Argentina","-34.5720435","-58.4560611","hay-luz",\N,"Colegiales","2013-12-25 10:03:04"
"Av Díaz Vélez 4334, Buenos Aires, Ciudad Autónoma de Buenos Aires, Argentina","-34.6087332","-58.4282049","hay-luz",\N,"Almagro","2013-12-25 10:18:53"
"Cramer 2500, Buenos Aires, Ciudad Autónoma de Buenos Aires, Argentina","-34.5610338","-58.4645088","hay-luz",\N,"Belgrano","2013-12-25 10:38:59"
"Emilio Mitre, Villa Sarmiento, Buenos Aires, Argentina","-34.6373329","-58.5751763","hay-luz",\N,"Morón","2013-12-25 11:04:30"
"Villa Santa Rita - Buenos Aires, Ciudad Autónoma de Buenos Aires, Argentina","-34.6124","-58.4811","corte-amplio","200","Villa Santa Rita","2013-12-25 11:51:49"
"José Bonifacio 2292, Buenos Aires, Ciudad Autónoma de Buenos Aires, Argentina","-34.6318889","-58.4594193","corte-amplio","48","Flores","2013-12-25 11:55:14"
"Dragones 1971, Buenos Aires, Ciudad Autónoma de Buenos Aires, Argentina","-34.5539323","-58.4399881","hay-luz",\N,"Belgrano","2013-12-25 12:22:19"
"Hortiguera 400, Buenos Aires, Ciudad Autónoma de Buenos Aires, Argentina","-34.6271412","-58.4454915","hay-luz",\N,"Caballito","2013-12-25 12:35:51"
"Río de Janeiro 609, Buenos Aires, Ciudad Autónoma de Buenos Aires, Argentina","-34.6085824","-58.430483","hay-luz",\N,"Almagro","2013-12-25 12:42:51"
"Lavalle 2560, Buenos Aires, Ciudad Autónoma de Buenos Aires, Argentina","-34.6034219","-58.4030677","hay-luz",\N,"Balvanera","2013-12-25 12:47:00"
"Vélez Sarsfield, Lanús Oeste, Buenos Aires, Argentina","-34.6996803","-58.3906136","hay-luz",\N,"Lanús","2013-12-25 12:49:45"
"Cullen 5690, Buenos Aires, Ciudad Autónoma de Buenos Aires, Argentina","-34.5764214","-58.4943187","hay-luz",\N,"Villa Urquiza","2013-12-25 12:49:45"
"Andonaegui 900, Buenos Aires, Ciudad Autónoma de Buenos Aires, Argentina","-34.5913596","-58.4758149","hay-luz",\N,"Parque Chas","2013-12-25 12:56:20"
"Pedernera 35, Buenos Aires, Ciudad Autónoma de Buenos Aires, Argentina","-34.6297859","-58.463892","hay-luz",\N,"Flores","2013-12-25 13:07:50"
"José Eusebio Colombres, Lomas de Zamora, Buenos Aires, Argentina","-34.7622948","-58.4149781","hay-luz",\N,"Lomas de Zamora","2013-12-25 13:27:40"
"Quito 4121, Buenos Aires, Ciudad Autónoma de Buenos Aires, Argentina","-34.6169216","-58.4247223","hay-luz",\N,"Almagro","2013-12-25 13:46:56"
"Av Asamblea, Buenos Aires, Ciudad Autónoma de Buenos Aires, Argentina","-34.6355476","-58.4403","hay-luz","3","Parque Chacabuco","2013-12-25 13:53:48"
"Bogotá, Buenos Aires, Ciudad Autónoma de Buenos Aires, Argentina","-34.6275253","-58.4714203","hay-luz",\N,"Flores","2013-12-25 14:05:41"
"Larrea 1100, Ramos Mejía, Buenos Aires, Argentina","-34.6480184","-58.5432299","hay-luz",\N,"La Matanza","2013-12-25 15:11:22"
"Güemes 4232, Buenos Aires, Ciudad Autónoma de Buenos Aires, Argentina","-34.5840601","-58.4202454","hay-luz",\N,"Palermo","2013-12-25 16:08:08"
"Av Ruiz Huidobro 3667, Buenos Aires, Ciudad Autónoma de Buenos Aires, Argentina","-34.5498167","-58.4843115","hay-luz",\N,"Saavedra","2013-12-25 16:08:47"
"Cañuelas 200, Buenos Aires, Ciudad Autónoma de Buenos Aires, Argentina","-34.5975074","-58.4472123","hay-luz",\N,"Villa Crespo","2013-12-25 17:07:10"
"Marcos Sastre, Buenos Aires, Ciudad Autónoma de Buenos Aires, Argentina","-34.6132812","-58.5047493","corte-cuadra","5","Monte Castro","2013-12-25 18:11:58"
"Av Rivadavia 8500, Buenos Aires, Ciudad Autónoma de Buenos Aires, Argentina","-34.6341989","-58.4832556","hay-luz",\N,"Vélez Sársfield","2013-12-25 18:29:24"
"Brandsen 1700, Buenos Aires, Ciudad Autónoma de Buenos Aires, Argentina","-34.6378619","-58.3747154","hay-luz",\N,"Barracas","2013-12-25 18:43:19"
"Yerbal 1862, Buenos Aires, Ciudad Autónoma de Buenos Aires, Argentina","-34.6254285","-58.4569174","hay-luz",\N,"Flores","2013-12-25 18:51:20"
"Catania 5600, Buenos Aires, Ciudad Autónoma de Buenos Aires, Argentina","-34.6454023","-58.502813","corte-amplio","96","Liniers","2013-12-25 18:55:57"
"Rodolfo López, Quilmes, Buenos Aires, Argentina","-34.7251511","-58.2734795","hay-luz",\N,"Quilmes","2013-12-25 19:00:37"
"Adrogué, Buenos Aires, Argentina","-34.8012352","-58.3889046","hay-luz",\N,"Almirante Brown","2013-12-25 19:15:02"
"Gavilán 1443, Buenos Aires, Ciudad Autónoma de Buenos Aires, Argentina","-34.6135504","-58.4677239","hay-luz",\N,"Villa Gral. Mitre","2013-12-25 19:28:42"
"Chile 1448, Villa Raffo, Buenos Aires, Argentina","-34.6080622","-58.5319608","corte-amplio","5","Tres de Febrero","2013-12-25 19:33:06"
"La Pampa 1242, Buenos Aires, Ciudad Autónoma de Buenos Aires, Argentina","-34.5578901","-58.4424075","corte-amplio","6","Belgrano","2013-12-25 19:36:30"
"Av Emilio Castro 7100, Buenos Aires, Ciudad Autónoma de Buenos Aires, Argentina","-34.6532788","-58.518153","hay-luz",\N,"Mataderos","2013-12-25 19:48:22"
"Av Directorio 3000, Buenos Aires, Ciudad Autónoma de Buenos Aires, Argentina","-34.6359848","-58.4690032","hay-luz",\N,"Flores","2013-12-25 19:51:41"
"Santo Tome 3600, Buenos Aires, Ciudad Autónoma de Buenos Aires, Argentina","-34.6086747","-58.4937893","hay-luz","24","Villa del Parque","2013-12-25 19:54:26"
"Santo Tome 3600, Buenos Aires, Ciudad Autónoma de Buenos Aires, Argentina","-34.6086747","-58.4937893","corte-cuadra","24","Villa del Parque","2013-12-25 19:55:36"
"Ana María Janer 5900, Buenos Aires, Ciudad Autónoma de Buenos Aires, Argentina","-34.6808139","-58.473758","hay-luz",\N,"Villa Lugano","2013-12-25 19:58:29"
"Tandil 3836, Buenos Aires, Ciudad Autónoma de Buenos Aires, Argentina","-34.6404166","-58.4773561","hay-luz",\N,"Parque Avellaneda","2013-12-25 20:06:13"
"Paraná 39, Buenos Aires, Ciudad Autónoma de Buenos Aires, Argentina","-34.6084422","-58.3876561","hay-luz",\N,"San Nicolás","2013-12-25 20:07:22"
"Av Rivadavia 2556, Buenos Aires, Ciudad Autónoma de Buenos Aires, Argentina","-34.609937","-58.402628","hay-luz",\N,"Balvanera","2013-12-25 20:09:19"
"Recoleta - Buenos Aires, Ciudad Autónoma de Buenos Aires, Argentina","-34.5905556","-58.3905556","hay-luz",\N,"Recoleta","2013-12-25 20:09:50"
"Av Bartolomé Mitre, Avellaneda, Buenos Aires, Argentina","-34.6617794","-58.3658295","corte-amplio","10","Avellaneda","2013-12-25 20:14:19"
"Capdevila 3057, Buenos Aires, Ciudad Autónoma de Buenos Aires, Argentina","-34.5692355","-58.4906833","hay-luz",\N,"Villa Urquiza","2013-12-25 20:21:02"
"Villa Devoto - Buenos Aires, Argentina","-34.6","-58.5166667","corte-amplio","98","Villa Devoto","2013-12-25 20:42:11"
"Av Rivadavia 7900, Buenos Aires, Ciudad Autónoma de Buenos Aires, Argentina","-34.6323549","-58.4756421","hay-luz",\N,"Floresta","2013-12-25 20:44:03"
"Buenos Aires, Argentina","-34.6037232","-58.3815931","corte-cuadra","4","San Nicolás","2013-12-25 20:48:39"
"Rosario, Santa Fe, Argentina","-32.9507408","-60.6665001","hay-luz",\N,"Rosario","2013-12-25 20:57:09"
"Av Lafuente 150, Buenos Aires, Ciudad Autónoma de Buenos Aires, Argentina","-34.6323312","-58.4674195","hay-luz",\N,"Flores","2013-12-25 21:01:10"
"Neuquén 1460, Buenos Aires, Ciudad Autónoma de Buenos Aires, Argentina","-34.6157234","-58.4541592","hay-luz",\N,"Caballito","2013-12-25 21:14:18"
"Acceso A Carlos Casares, Victoria, Buenos Aires, Argentina","-34.4655571","-58.5696259","hay-luz",\N,"San Fernando","2013-12-25 21:25:29"
"Nogoyá 3400, Buenos Aires, Ciudad Autónoma de Buenos Aires, Argentina","-34.605057","-58.4955187","corte-amplio","48","Villa del Parque","2013-12-25 21:42:07"
"Bolaños, Buenos Aires, Ciudad Autónoma de Buenos Aires, Argentina","-34.6358566","-58.484375","hay-luz",\N,"Vélez Sársfield","2013-12-25 21:46:15"
"Gral. Madariaga, Lanús Este, Buenos Aires, Argentina","-34.711647","-58.3775521","hay-luz",\N,"Lanús","2013-12-25 21:52:02"
"Arenales 1300, Buenos Aires, Ciudad Autónoma de Buenos Aires, Argentina","-34.5945874","-58.3857829","hay-luz",\N,"Retiro","2013-12-25 21:53:50"
"El Palomar, Buenos Aires, Argentina","-34.6266731","-58.5943604","corte-cuadra","12","Morón","2013-12-25 21:58:43"
"Recoleta - Buenos Aires, Ciudad Autónoma de Buenos Aires, Argentina","-34.5905556","-58.3905556","hay-luz",\N,"Recoleta","2013-12-25 21:59:47"
"Av Directorio 3300, Buenos Aires, Ciudad Autónoma de Buenos Aires, Argentina","-34.6370236","-58.472394","hay-luz",\N,"Parque Avellaneda","2013-12-25 22:00:31"
"Av Lincoln, Buenos Aires, Argentina","-34.5991974","-58.5137863","hay-luz",\N,"Villa Devoto","2013-12-25 22:03:12"
"Manzoni, Buenos Aires, Ciudad Autónoma de Buenos Aires, Argentina","-34.6399231","-58.4989967","hay-luz",\N,"Villa Luro","2013-12-25 22:13:57"
"Allende 3000, Buenos Aires, Ciudad Autónoma de Buenos Aires, Argentina","-34.613187","-58.5130166","corte-amplio","12","Villa Devoto","2013-12-25 22:23:58"
"Capitán Claudio Rosales, El Palomar, Buenos Aires, Argentina","-34.6252518","-58.5941696","hay-luz",\N,"Morón","2013-12-25 22:30:52"
"Av Francisco Beiro 4000, Buenos Aires, Ciudad Autónoma de Buenos Aires, Argentina","-34.6037208","-58.5083269","corte-cuadra","2","Villa Devoto","2013-12-25 22:46:11"
"Av San Juan 3000, Buenos Aires, Ciudad Autónoma de Buenos Aires, Argentina","-34.6244438","-58.4071081","hay-luz",\N,"San Cristóbal","2013-12-25 22:46:24"
"Marcos Sastre, Buenos Aires, Ciudad Autónoma de Buenos Aires, Argentina","-34.6132812","-58.5047493","corte-cuadra","1","Monte Castro","2013-12-25 22:50:19"
"Remedios Escalada de San Martín 4381, Buenos Aires, Ciudad Autónoma de Buenos Aires, Argentina","-34.6264395","-58.4936126","hay-luz",\N,"Vélez Sársfield","2013-12-25 22:59:05"
"Camarones 2390, Buenos Aires, Ciudad Autónoma de Buenos Aires, Argentina","-34.6090316","-58.474181","hay-luz",\N,"Villa Gral. Mitre","2013-12-25 23:03:40"
"Rawson 2851, Ingeniero Budge, Buenos Aires, Argentina","-34.7420696","-58.4520182","corte-amplio","140","Lomas de Zamora","2013-12-25 23:13:37"
"Av Directorio 3756, Buenos Aires, Ciudad Autónoma de Buenos Aires, Argentina","-34.6394087","-58.4767956","corte-amplio","8","Parque Avellaneda","2013-12-25 23:13:59"
"Liniers - Buenos Aires, Ciudad Autónoma de Buenos Aires, Argentina","-34.6436","-58.5164","corte-cuadra","24","Liniers","2013-12-25 23:21:00"
"Av Nazca 1700, Buenos Aires, Ciudad Autónoma de Buenos Aires, Argentina","-34.6144477","-58.4790269","corte-amplio","12","Villa Santa Rita","2013-12-25 23:27:18"
"Bahía Blanca 1800, Buenos Aires, Ciudad Autónoma de Buenos Aires, Argentina","-34.6175962","-58.4936503","corte-amplio","6","Monte Castro","2013-12-25 23:30:19"
"Concordia 1400, Buenos Aires, Ciudad Autónoma de Buenos Aires, Argentina","-34.6189462","-58.4848052","corte-amplio","6","Villa Santa Rita","2013-12-25 23:32:28"
"Del Signo 4042, Buenos Aires, Ciudad Autónoma de Buenos Aires, Argentina","-34.5904151","-58.4177118","hay-luz",\N,"Palermo","2013-12-25 23:34:49"
"Mendoza 5440, Buenos Aires, Ciudad Autónoma de Buenos Aires, Argentina","-34.5791425","-58.4871523","hay-luz",\N,"Villa Urquiza","2013-12-25 23:35:05"
"Av de Mayo 1316, Buenos Aires, Ciudad Autónoma de Buenos Aires, Argentina","-34.6093234","-58.3850497","hay-luz",\N,"Monserrat","2013-12-25 23:54:05"
"Bernal, Buenos Aires, Argentina","-34.7108688","-58.2800827","hay-luz",\N,"Quilmes","2013-12-25 23:57:35"
"Leopardi 152, Buenos Aires, Ciudad Autónoma de Buenos Aires, Argentina","-34.6391364","-58.4976419","corte-cuadra","3","Villa Luro","2013-12-26 00:25:19"
"La Pampa 1429, Buenos Aires, Ciudad Autónoma de Buenos Aires, Argentina","-34.559074","-58.444531","hay-luz",\N,"Belgrano","2013-12-26 00:26:11"
"Hortiguera 400, Buenos Aires, Ciudad Autónoma de Buenos Aires, Argentina","-34.6271412","-58.4454915","hay-luz",\N,"Caballito","2013-12-26 00:29:10"
"Av Segurola 56, Buenos Aires, Ciudad Autónoma de Buenos Aires, Argentina","-34.6334731","-58.4830014","hay-luz",\N,"Vélez Sársfield","2013-12-26 00:44:58"
"Bahía Blanca 26, Buenos Aires, Ciudad Autónoma de Buenos Aires, Argentina","-34.6331261","-58.480527","hay-luz",\N,"Floresta","2013-12-26 00:45:34"
"Av Castañares 4847, Buenos Aires, Ciudad Autónoma de Buenos Aires, Argentina","-34.6670605","-58.4730408","corte-amplio","1","Villa Lugano","2013-12-26 01:03:38"
"Carhué 1189, Villa Tesei, Buenos Aires, Argentina","-34.6244858","-58.6418798","corte-amplio","3","Hurlingham","2013-12-26 01:11:29"
"Olleros 1828, Buenos Aires, Ciudad Autónoma de Buenos Aires, Argentina","-34.5655398","-58.4385596","hay-luz",\N,"Palermo","2013-12-26 01:15:00"
"Rodríguez Pena 235, Ramos Mejía, Buenos Aires, Argentina","-34.6382841","-58.5583579","corte-amplio","120","La Matanza","2013-12-26 01:21:17"
"Concordia 1000, Buenos Aires, Ciudad Autónoma de Buenos Aires, Argentina","-34.622057","-58.4807885","corte-cuadra","24","Villa Santa Rita","2013-12-26 01:33:01"
"Carlos Tejedor, Boulogne, Buenos Aires, Argentina","-34.4893799","-58.569912","corte-amplio","1","San Isidro","2013-12-26 01:34:22"
"Av del Barco Centenera 345, Buenos Aires, Ciudad Autónoma de Buenos Aires, Argentina","-34.6233236","-58.4408244","hay-luz",\N,"Caballito","2013-12-26 01:46:59"
"Palacios 525, Dock Sud, Buenos Aires, Argentina","-34.6595178","-58.3579637","hay-luz",\N,"Avellaneda","2013-12-26 01:56:05"
"Charcas 846, Ramos Mejía, Buenos Aires, Argentina","-34.6452028","-58.5438793","hay-luz",\N,"La Matanza","2013-12-26 02:15:48"
"Tte. Gral. Juan Domingo Perón, Buenos Aires, Ciudad Autónoma de Buenos Aires, Argentina","-34.6073112","-58.3992348","hay-luz",\N,"Balvanera","2013-12-26 02:20:39"
"Av Medrano, Buenos Aires, Ciudad Autónoma de Buenos Aires, Argentina","-34.6000137","-58.4205246","corte-amplio","3","Almagro","2013-12-26 02:20:44"
"Montañeses 2000, Buenos Aires, Ciudad Autónoma de Buenos Aires, Argentina","-34.5583607","-58.448108","hay-luz",\N,"Belgrano","2013-12-26 02:25:34"
"Av Juan Bautista Alberdi, Buenos Aires, Ciudad Autónoma de Buenos Aires, Argentina","-34.6364784","-58.4773331","hay-luz",\N,"Floresta","2013-12-26 02:26:11"
"Conde 1000, Buenos Aires, Ciudad Autónoma de Buenos Aires, Argentina","-34.5762272","-58.4531922","corte-cuadra","1","Colegiales","2013-12-26 02:41:17"
"Ciudad de la Paz 1601, Buenos Aires, Ciudad Autónoma de Buenos Aires, Argentina","-34.5669889","-58.4538686","hay-luz",\N,"Belgrano","2013-12-26 03:12:29"
"Bolivia 2041, Buenos Aires, Ciudad Autónoma de Buenos Aires, Argentina","-34.6089844","-58.4779138","hay-luz",\N,"Villa Gral. Mitre","2013-12-26 03:19:53"
"Campos Salles, Morón, Buenos Aires, Argentina","-34.670414","-58.6261444","hay-luz",\N,"Morón","2013-12-26 03:20:37"
"Santander 725, Buenos Aires, Ciudad Autónoma de Buenos Aires, Argentina","-34.6345666","-58.4304626","hay-luz",\N,"Parque Chacabuco","2013-12-26 05:52:29"
"Ranelagh, Buenos Aires, Argentina","-34.793283","-58.1975693","hay-luz",\N,"Berazategui","2013-12-26 06:18:35"
"Av Olazabal 5125, Buenos Aires, Ciudad Autónoma de Buenos Aires, Argentina","-34.5766477","-58.4861957","corte-amplio","2","Villa Urquiza","2013-12-26 08:02:20"
"Amenábar 135, Buenos Aires, Ciudad Autónoma de Buenos Aires, Argentina","-34.5764917","-58.4402702","hay-luz",\N,"Palermo","2013-12-26 08:11:31"
"Malabia 2215, Buenos Aires, Ciudad Autónoma de Buenos Aires, Argentina","-34.5868546","-58.4210191","hay-luz",\N,"Palermo","2013-12-26 08:17:45"
"Allison Bell 1675, Quilmes, Buenos Aires, Argentina","-34.7348307","-58.2346461","corte-cuadra","36","Quilmes","2013-12-26 08:28:50"
"Montes de Oca, Castelar, Buenos Aires, Argentina","-34.6488495","-58.6475182","corte-cuadra","8","Morón","2013-12-26 08:35:13"
"Luis María Drago 130, Buenos Aires, Ciudad Autónoma de Buenos Aires, Argentina","-34.6028123","-58.4359248","corte-amplio","24","Villa Crespo","2013-12-26 09:18:04"
"Av 12 de Octubre 3607, Quilmes Oeste, Buenos Aires, Argentina","-34.7450465","-58.294408","hay-luz",\N,"Quilmes","2013-12-26 09:18:27"
"Boedo - Buenos Aires, Ciudad Autónoma de Buenos Aires, Argentina","-34.6333333","-58.4166667","hay-luz","1","Boedo","2013-12-26 09:20:08"
"San Pedro 4779, Buenos Aires, Ciudad Autónoma de Buenos Aires, Argentina","-34.651625","-58.4836154","corte-cuadra","96","Parque Avellaneda","2013-12-26 09:27:45"
"Eduardo Araña, Luis Guillón, Buenos Aires, Argentina","-34.8050786","-58.4497585","corte-amplio","24","Esteban Echeverría","2013-12-26 09:28:59"
"Sánchez de Bustamante 1650, Buenos Aires, Ciudad Autónoma de Buenos Aires, Argentina","-34.5919391","-58.4102171","hay-luz",\N,"Recoleta","2013-12-26 09:51:54"
"Nicaragua 5460, Buenos Aires, Ciudad Autónoma de Buenos Aires, Argentina","-34.5828261","-58.4320126","hay-luz",\N,"Palermo","2013-12-26 09:53:26"
"Bauness 2111, Buenos Aires, Ciudad Autónoma de Buenos Aires, Argentina","-34.5776478","-58.4849302","corte-cuadra","10","Villa Urquiza","2013-12-26 09:56:34"
"Malabia 500, Buenos Aires, Ciudad Autónoma de Buenos Aires, Argentina","-34.5981635","-58.4385196","hay-luz",\N,"Villa Crespo","2013-12-26 09:57:43"
"Blanco Encalada 4892, Buenos Aires, Ciudad Autónoma de Buenos Aires, Argentina","-34.5745873","-58.4847344","hay-luz",\N,"Villa Urquiza","2013-12-26 09:58:54"
"Gral. Güemes 1100, Acassuso, Buenos Aires, Argentina","-34.4781024","-58.4940119","corte-cuadra","10","San Isidro","2013-12-26 09:59:41"
"Bahía Blanca 750, Wilde, Buenos Aires, Argentina","-34.6953309","-58.3121359","corte-amplio","12","Avellaneda","2013-12-26 10:00:09"
"Pastor Obligado 27, Crucesita, Buenos Aires, Argentina","-34.6722484","-58.3528377","hay-luz",\N,"Avellaneda","2013-12-26 10:00:19"
"San José de Calasanz, Buenos Aires, Ciudad Autónoma de Buenos Aires, Argentina","-34.626297","-58.4376907","hay-luz",\N,"Caballito","2013-12-26 10:00:25"
"Miralla 2780, Buenos Aires, Ciudad Autónoma de Buenos Aires, Argentina","-34.6639257","-58.4807411","corte-amplio","10","Villa Lugano","2013-12-26 10:00:46"
"Sarandí, Buenos Aires, Argentina","-34.6832581","-58.3439941","hay-luz",\N,"Avellaneda","2013-12-26 10:00:49"
"Ecuador 318, Buenos Aires, Ciudad Autónoma de Buenos Aires, Argentina","-34.6064427","-58.4086891","corte-cuadra","1","Balvanera","2013-12-26 10:00:50"
"Tabaré 6644, Buenos Aires, Ciudad Autónoma de Buenos Aires, Argentina","-34.6921772","-58.4716597","corte-amplio","15","Villa Riachuelo","2013-12-26 10:00:56"
"Giordano Bruno, Buenos Aires, Ciudad Autónoma de Buenos Aires, Argentina","-34.6171955","-58.4413715","hay-luz",\N,"Caballito","2013-12-26 10:01:03"
"Charcas 5192, Buenos Aires, Ciudad Autónoma de Buenos Aires, Argentina","-34.5784947","-58.4300146","hay-luz",\N,"Palermo","2013-12-26 10:01:03"
"Perú 590, Buenos Aires, Ciudad Autónoma de Buenos Aires, Argentina","-34.6148045","-58.3745825","hay-luz",\N,"Monserrat","2013-12-26 10:01:04"
"Potosí 3859, Buenos Aires, Ciudad Autónoma de Buenos Aires, Argentina","-34.6072482","-58.4208255","hay-luz",\N,"Almagro","2013-12-26 10:01:07"
"Remedios de Escalada de San Martín, Valentín Alsina, Buenos Aires, Argentina","-34.6720161","-58.4127655","corte-amplio","12","Lanús","2013-12-26 10:01:19"
"Húsares 2255, Buenos Aires, Ciudad Autónoma de Buenos Aires, Argentina","-34.5519604","-58.4434218","hay-luz",\N,"Belgrano","2013-12-26 10:01:23"
"Beruti, Martínez, Buenos Aires, Argentina","-34.493145","-58.5103302","hay-luz",\N,"San Isidro","2013-12-26 10:01:26"
"Río Negro 3030, Córdoba, Argentina","-31.4438845","-64.2147638","corte-amplio","24","Córdoba","2013-12-26 10:01:27"
"Guardia Vieja 4251, Buenos Aires, Ciudad Autónoma de Buenos Aires, Argentina","-34.6002928","-58.4245092","corte-cuadra","24","Almagro","2013-12-26 10:01:43"
"Av Córdoba 1464, Rosario, Santa Fe, Argentina","-32.9455139","-60.6432788","hay-luz",\N,"Rosario","2013-12-26 10:01:43"
"Tomás Nother 2673, Rafael Calzada, Buenos Aires, Argentina","-34.7897735","-58.3723018","corte-amplio","12","Almirante Brown","2013-12-26 10:01:44"
"Av Belgrano 4100, Buenos Aires, Ciudad Autónoma de Buenos Aires, Argentina","-34.6159087","-58.4244711","hay-luz",\N,"Almagro","2013-12-26 10:01:46"
"Gral. Martín de Gainza 925, Buenos Aires, Ciudad Autónoma de Buenos Aires, Argentina","-34.6107347","-58.4465919","corte-amplio","4","Caballito","2013-12-26 10:01:47"
"Av Dr. Honorio Pueyrredón, Buenos Aires, Ciudad Autónoma de Buenos Aires, Argentina","-34.6062245","-58.4465557","corte-cuadra","8","Villa Crespo","2013-12-26 10:01:49"
"Olleros, Buenos Aires, Ciudad Autónoma de Buenos Aires, Argentina","-34.5740471","-58.4460487","hay-luz",\N,"Colegiales","2013-12-26 10:01:51"
"Metan, Buenos Aires, Ciudad Autónoma de Buenos Aires, Argentina","-34.6363373","-58.419548","corte-cuadra","2","Boedo","2013-12-26 10:01:55"
"Entre Ríos 395, Morón, Buenos Aires, Argentina","-34.6570508","-58.6152135","hay-luz",\N,"Morón","2013-12-26 10:02:00"
"Monte Grande, Buenos Aires, Argentina","-34.8271786","-58.4620124","corte-cuadra","30","Esteban Echeverría","2013-12-26 10:02:20"
"Domingo Faustino Sarmiento, Olivos, Buenos Aires, Argentina","-34.5095711","-58.4946862","corte-cuadra","12","Vicente López","2013-12-26 10:02:21"
"Cerrito 1820, Ramos Mejía, Buenos Aires, Argentina","-34.6545845","-58.5509663","corte-cuadra","72","La Matanza","2013-12-26 10:02:26"
"Av Callao 1225, Buenos Aires, Ciudad Autónoma de Buenos Aires, Argentina","-34.5945834","-58.3931425","hay-luz",\N,"Recoleta","2013-12-26 10:02:39"
"Gral. Enrique Martínez 1300, Buenos Aires, Ciudad Autónoma de Buenos Aires, Argentina","-34.5757839","-58.4589152","hay-luz",\N,"Colegiales","2013-12-26 10:02:43"
"Cucha Cucha 1588, Buenos Aires, Ciudad Autónoma de Buenos Aires, Argentina","-34.6044941","-58.4544144","corte-amplio","240","Villa Crespo","2013-12-26 10:03:01"
"Maipú 62, Buenos Aires, Ciudad Autónoma de Buenos Aires, Argentina","-34.6074247","-58.3764603","hay-luz",\N,"San Nicolás","2013-12-26 10:03:06"
"Av José María Moreno 419, Buenos Aires, Ciudad Autónoma de Buenos Aires, Argentina","-34.6233197","-58.4346237","hay-luz",\N,"Caballito","2013-12-26 10:03:20"
"Av Gral. José de San Martín 974, Gerli, Buenos Aires, Argentina","-34.6852574","-58.3965763","corte-amplio","12","Lanús","2013-12-26 10:03:23"
"Domingo Faustino Sarmiento, Olivos, Buenos Aires, Argentina","-34.5095711","-58.4946862","corte-amplio","10","Vicente López","2013-12-26 10:03:31"
"Malabia 75, Ramos Mejía, Buenos Aires, Argentina","-34.6566528","-58.5484163","corte-cuadra","8","La Matanza","2013-12-26 10:03:33"
"Emilio Mitre, Buenos Aires, Ciudad Autónoma de Buenos Aires, Argentina","-34.6326107","-58.4409442","corte-cuadra","10","Parque Chacabuco","2013-12-26 10:03:36"
"Balcarce 1375, Buenos Aires, Ciudad Autónoma de Buenos Aires, Argentina","-34.6238873","-58.3697858","corte-cuadra","72","San Telmo","2013-12-26 10:03:40"
"Tomás A. Le Breton, Buenos Aires, Ciudad Autónoma de Buenos Aires, Argentina","-34.5705872","-58.4896126","hay-luz",\N,"Villa Urquiza","2013-12-26 10:03:42"
"Av Callao 1225, Buenos Aires, Ciudad Autónoma de Buenos Aires, Argentina","-34.5945834","-58.3931425","hay-luz",\N,"Recoleta","2013-12-26 10:03:54"
"Av Corrientes 4678, Buenos Aires, Ciudad Autónoma de Buenos Aires, Argentina","-34.6021144","-58.4315051","hay-luz",\N,"Almagro","2013-12-26 10:04:27"
"Wilde, Buenos Aires, Argentina","-34.7040787","-58.3205986","corte-amplio","12","Avellaneda","2013-12-26 10:04:35"
"Gral. Urquiza 356, Buenos Aires, Ciudad Autónoma de Buenos Aires, Argentina","-34.6146874","-58.4097554","hay-luz",\N,"Balvanera","2013-12-26 10:04:37"
"Olaguer y Feliu, Martínez, Buenos Aires, Argentina","-34.4985809","-58.5007363","corte-cuadra","10","San Isidro","2013-12-26 10:04:39"
"Sarmiento 4340, Buenos Aires, Ciudad Autónoma de Buenos Aires, Argentina","-34.6042872","-58.426435","corte-amplio","72","Almagro","2013-12-26 10:04:40"
"La Plata, Buenos Aires, Argentina","-34.92125","-57.9543333","corte-amplio","12","La Plata","2013-12-26 10:04:56"
"Maestro Vergara, Villa Tesei, Buenos Aires, Argentina","-34.6296272","-58.6397858","hay-luz",\N,"Hurlingham","2013-12-26 10:05:17"
"Florida 648, Buenos Aires, Ciudad Autónoma de Buenos Aires, Argentina","-34.6004944","-58.3753871","hay-luz",\N,"San Nicolás","2013-12-26 10:05:24"
"Av Dr. Honorio Pueyrredón 681, Buenos Aires, Ciudad Autónoma de Buenos Aires, Argentina","-34.6120822","-58.4420504","corte-cuadra","8","Caballito","2013-12-26 10:05:26"
"Oliden, Remedios de Escalada, Buenos Aires, Argentina","-34.7367909","-58.3838374","corte-amplio","42","Lanús","2013-12-26 10:05:36"
"Adrogué, Buenos Aires, Argentina","-34.8012352","-58.3889046","hay-luz",\N,"Almirante Brown","2013-12-26 10:05:36"
"Av Chivilcoy 3800, Buenos Aires, Ciudad Autónoma de Buenos Aires, Argentina","-34.6007965","-58.5109989","corte-amplio","240","Villa Devoto","2013-12-26 10:05:42"
"Irigoyen 1920, Buenos Aires, Ciudad Autónoma de Buenos Aires, Argentina","-34.6233739","-58.5230784","corte-cuadra","140","Villa Real","2013-12-26 10:05:52"
"Hipólito Vieytes 1049, Banfield, Buenos Aires, Argentina","-34.7384823","-58.4090729","hay-luz",\N,"Lomas de Zamora","2013-12-26 10:06:17"
"Virrey Avilés, Buenos Aires, Ciudad Autónoma de Buenos Aires, Argentina","-34.5742798","-58.4593124","hay-luz",\N,"Colegiales","2013-12-26 10:06:17"
"Pringles, Ramos Mejía, Buenos Aires, Argentina","-34.656723","-58.5553971","corte-cuadra","12","La Matanza","2013-12-26 10:06:52"
"Temperley, Buenos Aires, Argentina","-34.7678337","-58.3792534","hay-luz",\N,"Lomas de Zamora","2013-12-26 10:06:58"
"Gral. Urquiza 56, Buenos Aires, Ciudad Autónoma de Buenos Aires, Argentina","-34.6110488","-58.4102657","corte-cuadra","10","Balvanera","2013-12-26 10:07:09"
"Aráoz 170, Buenos Aires, Ciudad Autónoma de Buenos Aires, Argentina","-34.6015238","-58.4396855","hay-luz",\N,"Villa Crespo","2013-12-26 10:07:47"
"Bartolomé Mitre 3700, Buenos Aires, Ciudad Autónoma de Buenos Aires, Argentina","-34.6096418","-58.418654","hay-luz",\N,"Almagro","2013-12-26 10:07:57"
"Necochea 450, Buenos Aires, Ciudad Autónoma de Buenos Aires, Argentina","-34.6287367","-58.3635591","hay-luz",\N,"Boca","2013-12-26 10:08:12"
"Pastor Obligado 27, Crucesita, Buenos Aires, Argentina","-34.6722484","-58.3528377","hay-luz",\N,"Avellaneda","2013-12-26 10:08:38"
"Calle 62, La Plata, Buenos Aires, Argentina","-34.9287014","-57.9459572","corte-amplio","8","La Plata","2013-12-26 10:08:40"
"San Martín, Buenos Aires, Argentina","-34.5759506","-58.5372696","corte-amplio","48","General San Martín","2013-12-26 10:08:51"
"R. Oliver 842, 9 de Abril, Buenos Aires, Argentina","-34.7810864","-58.4806238","hay-luz",\N,"Esteban Echeverría","2013-12-26 10:09:09"
"Bucarelli 1925, Buenos Aires, Ciudad Autónoma de Buenos Aires, Argentina","-34.5803109","-58.4841833","hay-luz",\N,"Villa Urquiza","2013-12-26 10:09:14"
"Corrales 6800, Buenos Aires, Ciudad Autónoma de Buenos Aires, Argentina","-34.6923555","-58.474012","corte-amplio","12","Villa Riachuelo","2013-12-26 10:09:16"
"Bolivia 5420, Buenos Aires, Ciudad Autónoma de Buenos Aires, Argentina","-34.5784872","-58.503991","hay-luz",\N,"Villa Pueyrredón","2013-12-26 10:09:39"
"Gral. Ferre 1008, Lanús Este, Buenos Aires, Argentina","-34.7057556","-58.3745819","corte-amplio","11","Lanús","2013-12-26 10:09:51"
"Av Chivilcoy 3800, Buenos Aires, Ciudad Autónoma de Buenos Aires, Argentina","-34.6007965","-58.5109989","corte-amplio","240","Villa Devoto","2013-12-26 10:10:40"
"Salom 632, Buenos Aires, Ciudad Autónoma de Buenos Aires, Argentina","-34.6502118","-58.3813251","corte-amplio","3","Barracas","2013-12-26 10:10:54"
"Cnel. Lacarra 2169, Gerli, Buenos Aires, Argentina","-34.6885576","-58.3785159","corte-amplio","24","Avellaneda","2013-12-26 10:11:55"
"Caseros 1351, Lomas de Zamora, Buenos Aires, Argentina","-34.7703835","-58.4190639","corte-amplio","40","Lomas de Zamora","2013-12-26 10:12:20"
"Bernardo de Monteagudo 600, Banfield, Buenos Aires, Argentina","-34.7480338","-58.4044992","hay-luz",\N,"Lomas de Zamora","2013-12-26 10:12:44"
"Monseñor Chimento 791, Lomas de Zamora, Buenos Aires, Argentina","-34.7700412","-58.4120841","corte-amplio","40","Lomas de Zamora","2013-12-26 10:13:59"
"Bahía Blanca, Wilde, Buenos Aires, Argentina","-34.6953316","-58.3121109","corte-cuadra","12","Avellaneda","2013-12-26 10:14:02"
"Caseros 1302, Lomas de Zamora, Buenos Aires, Argentina","-34.7704488","-58.4183639","corte-amplio","40","Lomas de Zamora","2013-12-26 10:14:29"
"Monseñor Chimento 798, Lomas de Zamora, Buenos Aires, Argentina","-34.7700711","-58.4120899","corte-amplio","40","Lomas de Zamora","2013-12-26 10:14:55"
"Sargento Cabral 582, Gerli, Buenos Aires, Argentina","-34.6883395","-58.379759","corte-cuadra","12","Avellaneda","2013-12-26 10:16:19"
"Sinclair 3139, Buenos Aires, Ciudad Autónoma de Buenos Aires, Argentina","-34.5736377","-58.4227337","hay-luz",\N,"Palermo","2013-12-26 10:17:40"
"Cnel. Lacarra 2173, Gerli, Buenos Aires, Argentina","-34.6885714","-58.3785329","corte-cuadra","24","Avellaneda","2013-12-26 10:17:44"
"Adolfo P. Carranza 2300, Buenos Aires, Ciudad Autónoma de Buenos Aires, Argentina","-34.6038122","-58.4767704","corte-amplio","27","Villa del Parque","2013-12-26 10:18:06"
"Sargento Cabral 574, Gerli, Buenos Aires, Argentina","-34.6883395","-58.379759","corte-cuadra","12","Avellaneda","2013-12-26 10:18:45"
"Virrey Liniers, Buenos Aires, Ciudad Autónoma de Buenos Aires, Argentina","-34.6241989","-58.4136353","hay-luz",\N,"Boedo","2013-12-26 10:19:55"
"Florencio Varela 2160, Gerli, Buenos Aires, Argentina","-34.6873877","-58.3802138","corte-cuadra","12","Avellaneda","2013-12-26 10:21:39"
"Caxaraville 765, Gerli, Buenos Aires, Argentina","-34.6882956","-58.3771484","corte-amplio","12","Avellaneda","2013-12-26 10:22:10"
"Corvalán 986, Buenos Aires, Ciudad Autónoma de Buenos Aires, Argentina","-34.647572","-58.4984845","corte-cuadra","96","Mataderos","2013-12-26 10:22:47"
"Muñiz, Buenos Aires, Argentina","-34.5519395","-58.703878","corte-cuadra","3","San Miguel","2013-12-26 10:25:20"
"José Antonio Cabrera, Buenos Aires, Ciudad Autónoma de Buenos Aires, Argentina","-34.5927773","-58.4283028","corte-amplio","5","Palermo","2013-12-26 10:25:51"
"Av Avellaneda 2806, Buenos Aires, Ciudad Autónoma de Buenos Aires, Argentina","-34.6259951","-58.4703113","corte-cuadra","48","Flores","2013-12-26 10:27:04"
"Corvalán 986, Buenos Aires, Ciudad Autónoma de Buenos Aires, Argentina","-34.647572","-58.4984845","corte-cuadra","240","Mataderos","2013-12-26 10:31:57"
"Au. Pascual Palazzo, Boulogne, Buenos Aires, Argentina","-34.4904907","-58.5680941","corte-cuadra","8","San Isidro","2013-12-26 10:40:05"
"Camarones 3102, Buenos Aires, Ciudad Autónoma de Buenos Aires, Argentina","-34.613785","-58.4831835","hay-luz",\N,"Villa Santa Rita","2013-12-26 10:40:35"
"Av José María Moreno 1335, Buenos Aires, Ciudad Autónoma de Buenos Aires, Argentina","-34.6343367","-58.4326961","corte-cuadra","90","Parque Chacabuco","2013-12-26 10:43:09"
"Plaza 2064, Buenos Aires, Ciudad Autónoma de Buenos Aires, Argentina","-34.5720273","-58.4729629","corte-cuadra","48","Villa Urquiza","2013-12-26 10:43:26"
"Gral. Paz 16486, Buenos Aires, Ciudad Autónoma de Buenos Aires, Argentina","-34.6954245","-58.4732033","corte-amplio","20","Villa Riachuelo","2013-12-26 10:46:28"
"Carlos Pellegrini 461, Buenos Aires, Ciudad Autónoma de Buenos Aires, Argentina","-34.6029598","-58.3809908","corte-cuadra","96","San Nicolás","2013-12-26 10:48:08"
"Olleros 1828, Buenos Aires, Ciudad Autónoma de Buenos Aires, Argentina","-34.5655398","-58.4385596","corte-cuadra","1","Palermo","2013-12-26 10:54:08"
"Av Gaona 4100, Buenos Aires, Ciudad Autónoma de Buenos Aires, Argentina","-34.6242047","-58.4817323","corte-amplio","4","Villa Santa Rita","2013-12-26 10:54:30"
"Maipú 124, Bernal, Buenos Aires, Argentina","-34.7173849","-58.2822096","corte-cuadra","13","Quilmes","2013-12-26 10:54:40"
"Vicente Oliden 1000, Lomas de Zamora, Buenos Aires, Argentina","-34.7708694","-58.4150833","corte-cuadra","40","Lomas de Zamora","2013-12-26 10:54:56"
"Moreno 4225, Ezpeleta, Buenos Aires, Argentina","-34.7435513","-58.2414612","corte-cuadra","12","Quilmes","2013-12-26 10:54:57"
"Acevedo 396, Buenos Aires, Ciudad Autónoma de Buenos Aires, Argentina","-34.5981569","-58.4407812","hay-luz",\N,"Villa Crespo","2013-12-26 10:55:39"
"Villa Ballester, Buenos Aires, Argentina","-34.5492357","-58.5588195","hay-luz",\N,"General San Martín","2013-12-26 10:56:54"
"Arenales 1514, Martínez, Buenos Aires, Argentina","-34.484918","-58.5010113","corte-cuadra","13","San Isidro","2013-12-26 10:57:02"
"Rodríguez Pena 307, Bernal, Buenos Aires, Argentina","-34.7159284","-58.2806299","corte-amplio","12","Quilmes","2013-12-26 10:57:25"
"Rodríguez Pena 307, Bernal, Buenos Aires, Argentina","-34.7159284","-58.2806299","corte-amplio","12","Quilmes","2013-12-26 10:58:20"
"Melincué, Buenos Aires, Ciudad Autónoma de Buenos Aires, Argentina","-34.6087074","-58.5036278","corte-cuadra","48","Villa Devoto","2013-12-26 10:58:59"
"Av Colón 1441, Córdoba, Argentina","-31.4079306","-64.2029347","hay-luz",\N,"Córdoba","2013-12-26 11:00:10"
"Rodríguez Pena 322, Bernal, Buenos Aires, Argentina","-34.716104","-58.2809003","corte-amplio","12","Quilmes","2013-12-26 11:02:16"
"Av Olazabal, Buenos Aires, Ciudad Autónoma de Buenos Aires, Argentina","-34.5741425","-58.4817848","hay-luz",\N,"Villa Urquiza","2013-12-26 11:02:50"
"Rodríguez Pena 314, Bernal, Buenos Aires, Argentina","-34.7160204","-58.2807386","corte-amplio","12","Quilmes","2013-12-26 11:02:56"
"Av Olazabal, Buenos Aires, Ciudad Autónoma de Buenos Aires, Argentina","-34.5741425","-58.4817848","hay-luz",\N,"Villa Urquiza","2013-12-26 11:03:46"
"Manuel Ricardo Trelles, Buenos Aires, Ciudad Autónoma de Buenos Aires, Argentina","-34.6081696","-58.4638825","corte-cuadra","192","Villa Gral. Mitre","2013-12-26 11:04:53"
"Génova, Ciudadela, Buenos Aires, Argentina","-34.6448021","-58.5390053","corte-cuadra","8","Tres de Febrero","2013-12-26 11:06:24"
"Honduras 4022, Buenos Aires, Ciudad Autónoma de Buenos Aires, Argentina","-34.5941388","-58.4198787","corte-cuadra","24","Palermo","2013-12-26 11:07:18"
"Mario Bravo 658, Buenos Aires, Ciudad Autónoma de Buenos Aires, Argentina","-34.6018373","-58.4164303","hay-luz",\N,"Almagro","2013-12-26 11:08:07"
"La Conquista 1070, Buenos Aires, Ciudad Autónoma de Buenos Aires, Argentina","-34.624371","-58.5234976","hay-luz",\N,"Versalles","2013-12-26 11:08:57"
"Av Dr. Honorio Pueyrredón 659, Buenos Aires, Ciudad Autónoma de Buenos Aires, Argentina","-34.6123188","-58.4418918","corte-cuadra","8","Caballito","2013-12-26 11:09:27"
"Calle 31 Bis, City Bell, Buenos Aires, Argentina","-34.8917046","-58.0576783","corte-amplio","8","La Plata","2013-12-26 11:10:49"
"Fitz Roy 1249, Buenos Aires, Ciudad Autónoma de Buenos Aires, Argentina","-34.58798","-58.4407008","hay-luz",\N,"Chacarita","2013-12-26 11:11:33"
"Isidro Casanova, Buenos Aires, Argentina","-34.7084659","-58.5858675","corte-cuadra","12","La Matanza","2013-12-26 11:13:03"
"Formosa 1030, Lanús Oeste, Buenos Aires, Argentina","-34.6903943","-58.3974262","hay-luz",\N,"Lanús","2013-12-26 11:13:12"
"Av Medrano 1015, Buenos Aires, Ciudad Autónoma de Buenos Aires, Argentina","-34.597582","-58.4201006","hay-luz",\N,"Palermo","2013-12-26 11:13:36"
"Olleros 3000, Buenos Aires, Ciudad Autónoma de Buenos Aires, Argentina","-34.5764412","-58.4473947","hay-luz",\N,"Colegiales","2013-12-26 11:13:41"
"Fortunato Devoto, Buenos Aires, Ciudad Autónoma de Buenos Aires, Argentina","-34.6191864","-58.4249268","hay-luz",\N,"Almagro","2013-12-26 11:14:10"
"Vidal 1515, Buenos Aires, Ciudad Autónoma de Buenos Aires, Argentina","-34.5691783","-58.4555518","hay-luz",\N,"Colegiales","2013-12-26 11:15:38"
"José E. Agüero 320, Turdera, Buenos Aires, Argentina","-34.7903214","-58.4071986","hay-luz",\N,"Lomas de Zamora","2013-12-26 11:15:44"
"Flores - Buenos Aires, Ciudad Autónoma de Buenos Aires, Argentina","-34.6333333","-58.4666667","corte-amplio","68","Flores","2013-12-26 11:16:10"
"Gral. José María Paz 1711, Florida, Buenos Aires, Argentina","-34.5257891","-58.4923384","hay-luz",\N,"Vicente López","2013-12-26 11:18:49"
"Luis Viale 350, Buenos Aires, Ciudad Autónoma de Buenos Aires, Argentina","-34.6038478","-58.4464356","hay-luz",\N,"Villa Crespo","2013-12-26 11:18:59"
"Corrales 6718, Buenos Aires, Ciudad Autónoma de Buenos Aires, Argentina","-34.69178","-58.4733707","corte-amplio","15","Villa Riachuelo","2013-12-26 11:19:03"
"Atuel 300, Parque Patricios, Buenos Aires, Ciudad Autónoma de Buenos Aires, Argentina","-34.6414495","-58.4075762","hay-luz",\N,"Parque Patricios","2013-12-26 11:19:43"
"Amenábar 3343, Buenos Aires, Ciudad Autónoma de Buenos Aires, Argentina","-34.5524041","-58.4683555","hay-luz",\N,"Núñez","2013-12-26 11:20:05"
"Capdevila, Buenos Aires, Ciudad Autónoma de Buenos Aires, Argentina","-34.5676842","-58.4918938","hay-luz",\N,"Villa Urquiza","2013-12-26 11:20:31"
"Pedro Guareschi, Tigre, Buenos Aires, Argentina","-34.4240456","-58.5741501","hay-luz",\N,"Tigre","2013-12-26 11:22:03"
"Bv. Gobernador Martín Rodríguez, Lanús Este, Buenos Aires, Argentina","-34.7068539","-58.3712655","corte-amplio","10","Lanús","2013-12-26 11:22:18"
"Avellaneda, Buenos Aires, Argentina","-34.6610756","-58.3669739","hay-luz",\N,"Avellaneda","2013-12-26 11:23:19"
"Concepción Arenal 2978, Buenos Aires, Ciudad Autónoma de Buenos Aires, Argentina","-34.579062","-58.4423202","corte-amplio","1","Colegiales","2013-12-26 11:23:41"
"Córdoba 1600, Lanús Este, Buenos Aires, Argentina","-34.7087337","-58.3815782","corte-amplio","15","Lanús","2013-12-26 11:23:48"
"Yatay 749, Buenos Aires, Ciudad Autónoma de Buenos Aires, Argentina","-34.6032844","-58.428674","corte-cuadra","11","Almagro","2013-12-26 11:23:58"
"Parral 260, Buenos Aires, Ciudad Autónoma de Buenos Aires, Argentina","-34.6164409","-58.4402385","hay-luz",\N,"Caballito","2013-12-26 11:24:46"
"Aviador Udet 2500, Ciudad Jardín Lomas de Palomar, Buenos Aires, Argentina","-34.5938484","-58.5960632","corte-cuadra","72","Tres de Febrero","2013-12-26 11:26:40"
"Av Colón 1441, Córdoba, Argentina","-31.4079306","-64.2029347","hay-luz",\N,"Córdoba","2013-12-26 11:27:36"
"Lavalle 4050, Buenos Aires, Ciudad Autónoma de Buenos Aires, Argentina","-34.5978908","-58.4225934","hay-luz",\N,"Almagro","2013-12-26 11:27:59"
"Lavalleja 163, Buenos Aires, Ciudad Autónoma de Buenos Aires, Argentina","-34.6025478","-58.4369225","hay-luz",\N,"Villa Crespo","2013-12-26 11:28:40"
"Gral. José Gervasio Artigas 3731, Buenos Aires, Ciudad Autónoma de Buenos Aires, Argentina","-34.5904609","-58.4913039","hay-luz",\N,"Agronomía","2013-12-26 11:30:24"
"Fitz Roy 1400, Buenos Aires, Ciudad Autónoma de Buenos Aires, Argentina","-34.5867596","-58.4393003","hay-luz",\N,"Palermo","2013-12-26 11:31:25"
"Av Gral. Mosconi, Buenos Aires, Argentina","-34.5894737","-58.5075073","hay-luz",\N,"Villa Pueyrredón","2013-12-26 11:31:40"
"Ladislao Martínez 24, Martínez, Buenos Aires, Argentina","-34.4901659","-58.4998732","hay-luz",\N,"San Isidro","2013-12-26 11:33:32"
"Hipólito Yrigoyen 2647, Buenos Aires, Ciudad Autónoma de Buenos Aires, Argentina","-34.6111289","-58.403864","hay-luz",\N,"Balvanera","2013-12-26 11:35:38"
"Acceso A Mitre, Buenos Aires, Argentina","-34.5491028","-58.4997292","hay-luz",\N,"Vicente López","2013-12-26 11:36:00"
"Iguazú 833, Parque Patricios, Buenos Aires, Ciudad Autónoma de Buenos Aires, Argentina","-34.6470585","-58.4050735","corte-amplio","1","Parque Patricios","2013-12-26 11:39:10"
"Av Corrientes 3365, Buenos Aires, Ciudad Autónoma de Buenos Aires, Argentina","-34.6041329","-58.4126779","hay-luz",\N,"Balvanera","2013-12-26 11:39:31"
"Av Paseo Colón 482, Buenos Aires, Ciudad Autónoma de Buenos Aires, Argentina","-34.6133162","-58.3691118","hay-luz",\N,"Monserrat","2013-12-26 11:39:55"
"José Pedro Varela 4245, Buenos Aires, Ciudad Autónoma de Buenos Aires, Argentina","-34.6061226","-58.510063","corte-amplio","18","Villa Devoto","2013-12-26 11:40:23"
"Bombero Voluntario Ismael Antognioli 3363, Florencio Varela, Buenos Aires, Argentina","-34.8103017","-58.2656084","hay-luz",\N,"Florencio Varela","2013-12-26 11:41:13"
"Boulogne Sur Mer 520, Buenos Aires, Ciudad Autónoma de Buenos Aires, Argentina","-34.604211","-58.4066135","hay-luz",\N,"Balvanera","2013-12-26 11:41:22"
"El Salvador 6033, Buenos Aires, Ciudad Autónoma de Buenos Aires, Argentina","-34.5797407","-58.4397497","corte-amplio","1","Palermo","2013-12-26 11:41:57"
"Nicolás Avellaneda 462, San Isidro, Buenos Aires, Argentina","-34.4700007","-58.5244853","hay-luz",\N,"San Isidro","2013-12-26 11:44:15"
"Av Chivilcoy 3800, Buenos Aires, Ciudad Autónoma de Buenos Aires, Argentina","-34.6007965","-58.5109989","corte-amplio","240","Villa Devoto","2013-12-26 11:45:44"
"Av Rivadavia 3984, Buenos Aires, Ciudad Autónoma de Buenos Aires, Argentina","-34.6119779","-58.4221581","hay-luz",\N,"Almagro","2013-12-26 11:46:46"
"San Martín 1430, Luján de Cuyo, Mendoza, Argentina","-33.0298926","-68.8766241","hay-luz",\N,"Mendoza","2013-12-26 11:47:27"
"Tucumán 752, Buenos Aires, Ciudad Autónoma de Buenos Aires, Argentina","-34.6011839","-58.3774677","hay-luz",\N,"San Nicolás","2013-12-26 11:49:37"
"Carlos Antonio López 2548, Buenos Aires, Ciudad Autónoma de Buenos Aires, Argentina","-34.5829454","-58.4989804","hay-luz",\N,"Villa Pueyrredón","2013-12-26 11:50:47"
"Caballito - Buenos Aires, Ciudad Autónoma de Buenos Aires, Argentina","-34.6166667","-58.45","hay-luz",\N,"Caballito","2013-12-26 11:52:06"
"Manuel Ugarte 2158, Buenos Aires, Ciudad Autónoma de Buenos Aires, Argentina","-34.5550916","-58.4591873","corte-cuadra","12","Belgrano","2013-12-26 11:54:43"
"Pedro Lozano, Buenos Aires, Ciudad Autónoma de Buenos Aires, Argentina","-34.6092641","-58.508394","corte-amplio","12","Villa Devoto","2013-12-26 11:56:47"
"Cosquín 5486, Buenos Aires, Ciudad Autónoma de Buenos Aires, Argentina","-34.6921561","-58.4675876","hay-luz",\N,"Villa Riachuelo","2013-12-26 11:58:02"
"José Enrique Rodó, Buenos Aires, Argentina","-34.6513367","-58.49543","corte-amplio","4","Mataderos","2013-12-26 11:59:00"
"Paraguay 5171, Buenos Aires, Ciudad Autónoma de Buenos Aires, Argentina","-34.5796597","-58.4306532","hay-luz",\N,"Palermo","2013-12-26 11:59:19"
"Carbajal 3699, Buenos Aires, Ciudad Autónoma de Buenos Aires, Argentina","-34.5749692","-58.4660523","hay-luz",\N,"Villa Ortúzar","2013-12-26 11:59:27"
"Sarmiento 4563, Buenos Aires, Ciudad Autónoma de Buenos Aires, Argentina","-34.6040475","-58.429817","corte-cuadra","12","Almagro","2013-12-26 12:01:12"
"Caaguazú 6505, Buenos Aires, Ciudad Autónoma de Buenos Aires, Argentina","-34.6465249","-58.5182079","hay-luz",\N,"Liniers","2013-12-26 12:01:22"
"Guatemala 5455, Buenos Aires, Ciudad Autónoma de Buenos Aires, Argentina","-34.581439","-58.4305827","hay-luz",\N,"Palermo","2013-12-26 12:01:25"
"Billinghurst 2129, Buenos Aires, Ciudad Autónoma de Buenos Aires, Argentina","-34.5869857","-58.4071889","hay-luz",\N,"Recoleta","2013-12-26 12:01:50"
"Alberto Larroque 819, Banfield, Buenos Aires, Argentina","-34.7438058","-58.4068169","corte-amplio","18","Lomas de Zamora","2013-12-26 12:03:06"
"Av Nicolás Avellaneda, Virreyes, Buenos Aires, Argentina","-34.4615383","-58.5741596","hay-luz",\N,"San Fernando","2013-12-26 12:04:47"
"Parque Avellaneda - Buenos Aires, Ciudad Autónoma de Buenos Aires, Argentina","-34.6447222","-58.4794444","corte-amplio","10","Parque Avellaneda","2013-12-26 12:05:37"
"Castelli 11, Quilmes, Buenos Aires, Argentina","-34.7170219","-58.2663059","hay-luz",\N,"Quilmes","2013-12-26 12:06:42"
"José Thames, Ingeniero Adolfo Sourdeaux, Buenos Aires, Argentina","-34.5010605","-58.6536522","corte-amplio","1","Malvinas Argentinas","2013-12-26 12:07:04"
"Av Corrientes 485, Buenos Aires, Ciudad Autónoma de Buenos Aires, Argentina","-34.6032251","-58.3736447","hay-luz",\N,"San Nicolás","2013-12-26 12:08:04"
"Biarritz 3700, Buenos Aires, Ciudad Autónoma de Buenos Aires, Argentina","-34.6081716","-58.4822391","corte-amplio","1","Villa del Parque","2013-12-26 12:10:00"
"Av Boyacá 326, Buenos Aires, Ciudad Autónoma de Buenos Aires, Argentina","-34.6232089","-58.4591177","corte-cuadra","100","Flores","2013-12-26 12:10:49"
"Nahuel Huapi 5370, Buenos Aires, Ciudad Autónoma de Buenos Aires, Argentina","-34.5730032","-58.4920244","hay-luz",\N,"Villa Urquiza","2013-12-26 12:10:58"
"Pje 148, José León Suárez, Buenos Aires, Argentina","-34.5347443","-58.5603905","corte-cuadra","12","General San Martín","2013-12-26 12:12:06"
"Tte. Insúa 221, Monte Grande, Buenos Aires, Argentina","-34.8067914","-58.4598218","corte-amplio","72","Esteban Echeverría","2013-12-26 12:13:44"
"Av Alvarez Thomas 1131, Buenos Aires, Ciudad Autónoma de Buenos Aires, Argentina","-34.57847","-58.4575929","corte-cuadra","1","Colegiales","2013-12-26 12:14:40"
"Av Cnel. Ramón L. Falcon 2100, Buenos Aires, Ciudad Autónoma de Buenos Aires, Argentina","-34.6288637","-58.4581768","corte-cuadra","48","Flores","2013-12-26 12:15:18"
"Lavalle 3726, Buenos Aires, Ciudad Autónoma de Buenos Aires, Argentina","-34.5998323","-58.4181741","corte-cuadra","1","Almagro","2013-12-26 12:17:12"
"Lambaré 1136, Buenos Aires, Ciudad Autónoma de Buenos Aires, Argentina","-34.60057","-58.4298794","hay-luz",\N,"Almagro","2013-12-26 12:18:41"
"Juramento 5100, Buenos Aires, Ciudad Autónoma de Buenos Aires, Argentina","-34.5783239","-58.4828355","hay-luz",\N,"Villa Urquiza","2013-12-26 12:23:26"
"Esmeralda 3400, Florida Oeste, Buenos Aires, Argentina","-34.5306166","-58.5097905","hay-luz",\N,"Vicente López","2013-12-26 12:24:20"
"José C. Paz 3050, Parque Patricios, Buenos Aires, Ciudad Autónoma de Buenos Aires, Argentina","-34.6444086","-58.405357","corte-amplio","1","Parque Patricios","2013-12-26 12:24:35"
"Uriarte 1475, Buenos Aires, Ciudad Autónoma de Buenos Aires, Argentina","-34.5882876","-58.4333264","hay-luz",\N,"Palermo","2013-12-26 12:24:44"
"Lincoln 435, Wilde, Buenos Aires, Argentina","-34.7027729","-58.3096603","corte-amplio","2","Avellaneda","2013-12-26 12:25:05"
"Lavalle 3726, Buenos Aires, Ciudad Autónoma de Buenos Aires, Argentina","-34.5998323","-58.4181741","hay-luz",\N,"Almagro","2013-12-26 12:25:59"
"Jerónimo Salguero 580, Buenos Aires, Ciudad Autónoma de Buenos Aires, Argentina","-34.6036746","-58.419575","corte-cuadra","4","Almagro","2013-12-26 12:28:40"
"Bella Vista, Buenos Aires, Argentina","-34.5637055","-58.6903973","hay-luz",\N,"San Miguel","2013-12-26 12:29:59"
"Calle 20 210, La Plata, Buenos Aires, Argentina","-34.9163236","-57.9775512","hay-luz",\N,"La Plata","2013-12-26 12:30:40"
"Roque Sáenz Pena 1900, Quilmes, Buenos Aires, Argentina","-34.7315279","-58.2604244","hay-luz",\N,"Quilmes","2013-12-26 12:31:52"
"Capitán Gral. Ramón Freire 400, Buenos Aires, Ciudad Autónoma de Buenos Aires, Argentina","-34.578119","-58.4462638","hay-luz",\N,"Colegiales","2013-12-26 12:32:05"
"Gral. Alvear 660, Ituzaingó, Buenos Aires, Argentina","-34.6544399","-58.6659454","hay-luz",\N,"Ituzaingó","2013-12-26 12:33:51"
"Av del Barco Centenera 345, Buenos Aires, Ciudad Autónoma de Buenos Aires, Argentina","-34.6233236","-58.4408244","corte-cuadra",\N,"Caballito","2013-12-26 12:34:05"
"Gral. San Martín 2470, Florida, Buenos Aires, Argentina","-34.5298875","-58.4956107","hay-luz",\N,"Vicente López","2013-12-26 12:38:25"
"Av 38, La Plata, Buenos Aires, Argentina","-34.9103203","-57.9671975","corte-amplio","4","La Plata","2013-12-26 12:39:29"
"Caballito - Buenos Aires, Ciudad Autónoma de Buenos Aires, Argentina","-34.6166667","-58.45","corte-amplio","1","Caballito","2013-12-26 12:41:35"
"Costa Rica 4536, Buenos Aires, Ciudad Autónoma de Buenos Aires, Argentina","-34.5892398","-58.4255013","hay-luz",\N,"Palermo","2013-12-26 12:41:42"
"Ciudad de la Paz 1887, Buenos Aires, Ciudad Autónoma de Buenos Aires, Argentina","-34.564597","-58.4559191","hay-luz",\N,"Belgrano","2013-12-26 12:42:30"
"Boulogne Sur Mer 535, Buenos Aires, Ciudad Autónoma de Buenos Aires, Argentina","-34.6040087","-58.4065286","hay-luz",\N,"Balvanera","2013-12-26 12:42:35"
"San Roque 3515, Ciudadela, Buenos Aires, Argentina","-34.6275956","-58.5410869","hay-luz",\N,"Tres de Febrero","2013-12-26 12:45:45"
"25 de Mayo 600, Buenos Aires, Ciudad Autónoma de Buenos Aires, Argentina","-34.6007524","-58.3712859","hay-luz",\N,"San Nicolás","2013-12-26 12:46:19"
"Gral. Alvear 917, Monte Grande, Buenos Aires, Argentina","-34.8197499","-58.4549348","hay-luz",\N,"Esteban Echeverría","2013-12-26 12:47:38"
"Muñecas 885, Buenos Aires, Ciudad Autónoma de Buenos Aires, Argentina","-34.5998265","-58.446557","corte-cuadra","2","Villa Crespo","2013-12-26 12:48:12"
"Monteagudo, Ramos Mejía, Buenos Aires, Argentina","-34.639801","-58.5610886","hay-luz",\N,"La Matanza","2013-12-26 12:49:07"
"Villa Crespo - Buenos Aires, Ciudad Autónoma de Buenos Aires, Argentina","-34.6","-58.45","hay-luz",\N,"Villa Crespo","2013-12-26 12:49:57"
"Lerma, Buenos Aires, Ciudad Autónoma de Buenos Aires, Argentina","-34.5950508","-58.4311981","corte-cuadra","144","Villa Crespo","2013-12-26 12:50:36"
"Av Alvarez Thomas, Buenos Aires, Ciudad Autónoma de Buenos Aires, Argentina","-34.5787239","-58.4646683","corte-cuadra","1","Villa Ortúzar","2013-12-26 12:50:47"
"Arribeños 2740, Buenos Aires, Ciudad Autónoma de Buenos Aires, Argentina","-34.5523426","-58.4550159","hay-luz",\N,"Belgrano","2013-12-26 12:51:06"
"Tapiales, Vicente López, Buenos Aires, Argentina","-34.5196342","-58.4769821","hay-luz",\N,"Vicente López","2013-12-26 12:51:09"
"Lerma 681, Buenos Aires, Ciudad Autónoma de Buenos Aires, Argentina","-34.5924264","-58.4336232","corte-amplio","145","Villa Crespo","2013-12-26 12:52:20"
"Malabia 75, Ramos Mejía, Buenos Aires, Argentina","-34.6566528","-58.5484163","hay-luz",\N,"La Matanza","2013-12-26 12:52:27"
"Ucacha 1550, Buenos Aires, Ciudad Autónoma de Buenos Aires, Argentina","-34.643141","-58.4368376","hay-luz",\N,"Parque Chacabuco","2013-12-26 12:52:42"
"Quesada 1529, Buenos Aires, Ciudad Autónoma de Buenos Aires, Argentina","-34.5496985","-58.4544432","hay-luz",\N,"Núñez","2013-12-26 12:53:06"
"Uruguay, Victoria, Buenos Aires, Argentina","-34.4671021","-58.5574265","corte-amplio","1","San Fernando","2013-12-26 12:53:58"
"Yerbal 1000, Buenos Aires, Ciudad Autónoma de Buenos Aires, Argentina","-34.62057","-58.4448505","hay-luz",\N,"Caballito","2013-12-26 12:54:25"
"Av Córdoba 5641, Buenos Aires, Ciudad Autónoma de Buenos Aires, Argentina","-34.5872401","-58.4406531","hay-luz",\N,"Palermo","2013-12-26 12:57:13"
"Gral. Napoleón Uriburu 5800, Buenos Aires, Ciudad Autónoma de Buenos Aires, Argentina","-34.6859588","-58.465612","hay-luz",\N,"Villa Lugano","2013-12-26 12:57:45"
"Av Córdoba 8000, Buenos Aires, Ciudad Autónoma de Buenos Aires, Argentina","-34.5817321","-58.4516875","corte-amplio","36","Chacarita","2013-12-26 12:59:54"
"Manuel Ugarte, Buenos Aires, Ciudad Autónoma de Buenos Aires, Argentina","-34.5576782","-58.4646225","hay-luz",\N,"Belgrano","2013-12-26 13:01:36"
"Av Lastra, Buenos Aires, Argentina","-34.6073418","-58.5216675","corte-cuadra","120","Villa Devoto","2013-12-26 13:01:43"
"Emilio Mitre 28, Buenos Aires, Ciudad Autónoma de Buenos Aires, Argentina","-34.6221791","-58.4441903","hay-luz","1","Caballito","2013-12-26 13:03:47"
"Av Cabildo 1000, Buenos Aires, Ciudad Autónoma de Buenos Aires, Argentina","-34.5691507","-58.4464859","hay-luz",\N,"Palermo","2013-12-26 13:06:57"
"Matheu 140, Buenos Aires, Ciudad Autónoma de Buenos Aires, Argentina","-34.61139","-58.4003603","hay-luz",\N,"Balvanera","2013-12-26 13:07:06"
"Laprida 1072, Buenos Aires, Ciudad Autónoma de Buenos Aires, Argentina","-34.5963811","-58.4085799","hay-luz",\N,"Recoleta","2013-12-26 13:07:55"
"Av San Martín, Buenos Aires, Argentina","-34.5982451","-58.4821246","hay-luz",\N,"Agronomía","2013-12-26 13:08:01"
"Argerich 2416, Buenos Aires, Ciudad Autónoma de Buenos Aires, Argentina","-34.6083706","-58.485797","hay-luz",\N,"Villa del Parque","2013-12-26 13:11:21"
"Lafinur, Buenos Aires, Ciudad Autónoma de Buenos Aires, Argentina","-34.578846","-58.4133148","hay-luz",\N,"Palermo","2013-12-26 13:11:39"
"Av Olazabal 5496, Buenos Aires, Ciudad Autónoma de Buenos Aires, Argentina","-34.5791894","-58.4905407","hay-luz",\N,"Villa Urquiza","2013-12-26 13:13:15"
"Del Barco Centenera, San Isidro, Buenos Aires, Argentina","-34.4659271","-58.5069123","corte-amplio","2","San Isidro","2013-12-26 13:13:28"
"Av de Los Lagos, Rincón de Milberg, Buenos Aires, Argentina","-34.4250984","-58.6567001","hay-luz",\N,"Tigre","2013-12-26 13:13:41"
"Arenales 2649, Buenos Aires, Ciudad Autónoma de Buenos Aires, Argentina","-34.5927061","-58.4035787","hay-luz",\N,"Recoleta","2013-12-26 13:14:06"
"Chile 6075, Mendoza, Argentina","-32.8982135","-68.7786933","corte-amplio","7","Mendoza","2013-12-26 13:14:18"
"Av Nazca 1950, Buenos Aires, Ciudad Autónoma de Buenos Aires, Argentina","-34.611932","-58.4810482","hay-luz",\N,"Villa Santa Rita","2013-12-26 13:15:23"
"Bucarelli 3001, Buenos Aires, Ciudad Autónoma de Buenos Aires, Argentina","-34.5710038","-58.4925191","corte-amplio","9","Villa Urquiza","2013-12-26 13:16:41"
"Estados Unidos, Buenos Aires, Ciudad Autónoma de Buenos Aires, Argentina","-34.6195946","-58.3972778","corte-amplio","15","San Cristóbal","2013-12-26 13:17:20"
"Bolívar 260, Ramos Mejía, Buenos Aires, Argentina","-34.6430219","-58.5637133","corte-amplio","8","La Matanza","2013-12-26 13:17:38"
"Av Dr. Honorio Pueyrredón 659, Buenos Aires, Ciudad Autónoma de Buenos Aires, Argentina","-34.6123188","-58.4418918","corte-amplio","12","Caballito","2013-12-26 13:17:45"
"Caseros, Buenos Aires, Argentina","-34.6094827","-58.5634631","corte-amplio","60","Tres de Febrero","2013-12-26 13:18:39"
"Arenales 3069, Buenos Aires, Ciudad Autónoma de Buenos Aires, Argentina","-34.5896302","-58.4077469","hay-luz",\N,"Recoleta","2013-12-26 13:19:25"
"Oncativo 1947, Lanús Este, Buenos Aires, Argentina","-34.710113","-58.3864241","corte-cuadra","48","Lanús","2013-12-26 13:21:53"
"Apeninos 449, Virrey del Pino, Buenos Aires, Argentina","-34.8373603","-58.6444714","hay-luz",\N,"La Matanza","2013-12-26 13:22:30"
"Villa Urquiza - Buenos Aires, Argentina","-34.5733333","-58.4969444","hay-luz",\N,"Villa Urquiza","2013-12-26 13:23:07"
"Ciudad de la Paz 2781, Buenos Aires, Ciudad Autónoma de Buenos Aires, Argentina","-34.5567963","-58.4626399","hay-luz",\N,"Belgrano","2013-12-26 13:23:17"
"Av de Los Incas 5030, Buenos Aires, Ciudad Autónoma de Buenos Aires, Argentina","-34.5854122","-58.4798","hay-luz",\N,"Parque Chas","2013-12-26 13:23:49"
"Lisandro Medina 2114, Caseros, Buenos Aires, Argentina","-34.6013745","-58.5635785","hay-luz",\N,"Tres de Febrero","2013-12-26 13:25:01"
"Angel Pacheco 2100, Buenos Aires, Ciudad Autónoma de Buenos Aires, Argentina","-34.5757491","-58.4817318","hay-luz",\N,"Villa Urquiza","2013-12-26 13:25:31"
"Fitz Roy 2250, Buenos Aires, Ciudad Autónoma de Buenos Aires, Argentina","-34.5799034","-58.431483","hay-luz",\N,"Palermo","2013-12-26 13:27:20"
"Campichuelo, Buenos Aires, Ciudad Autónoma de Buenos Aires, Argentina","-34.6127892","-58.4346848","corte-amplio","1","Caballito","2013-12-26 13:27:40"
"Miramar 932, El Libertador, Buenos Aires, Argentina","-34.5542135","-58.6182537","hay-luz",\N,"Tres de Febrero","2013-12-26 13:28:05"
"15 de Noviembre de 1889, Buenos Aires, Ciudad Autónoma de Buenos Aires, Argentina","-34.6317329","-58.3913994","hay-luz",\N,"Parque Patricios","2013-12-26 13:29:10"
"Fraga 1136, Buenos Aires, Ciudad Autónoma de Buenos Aires, Argentina","-34.5830016","-58.4594321","hay-luz",\N,"Chacarita","2013-12-26 13:30:04"
"Senillosa, Buenos Aires, Ciudad Autónoma de Buenos Aires, Argentina","-34.6283798","-58.4278679","hay-luz",\N,"Parque Chacabuco","2013-12-26 13:30:29"
"Cnel. Allende 2448, Remedios de Escalada, Buenos Aires, Argentina","-34.7242877","-58.3848465","corte-amplio","12","Lanús","2013-12-26 13:31:47"
"Ramallo 3150, Buenos Aires, Ciudad Autónoma de Buenos Aires, Argentina","-34.545525","-58.4801166","corte-amplio","10","Saavedra","2013-12-26 13:32:24"
"Av Warnes 1420, Buenos Aires, Ciudad Autónoma de Buenos Aires, Argentina","-34.5977777","-58.4557238","hay-luz",\N,"Villa Crespo","2013-12-26 13:32:59"
"Bacacay, Ituzaingó, Buenos Aires, Argentina","-34.650974","-58.6730545","corte-cuadra","48","Ituzaingó","2013-12-26 13:33:41"
"Gascón 674, Buenos Aires, Ciudad Autónoma de Buenos Aires, Argentina","-34.6033049","-58.4241675","hay-luz",\N,"Almagro","2013-12-26 13:34:20"
"Camarones 2390, Buenos Aires, Ciudad Autónoma de Buenos Aires, Argentina","-34.6090316","-58.474181","corte-cuadra","12","Villa Gral. Mitre","2013-12-26 13:35:28"
"Costa Rica 4536, Buenos Aires, Ciudad Autónoma de Buenos Aires, Argentina","-34.5892398","-58.4255013","corte-cuadra","1","Palermo","2013-12-26 13:37:43"
"Bogotá, Buenos Aires, Ciudad Autónoma de Buenos Aires, Argentina","-34.6275253","-58.4714203","corte-amplio","52","Flores","2013-12-26 13:38:03"
"Nogoyá 3278, Buenos Aires, Ciudad Autónoma de Buenos Aires, Argentina","-34.6044556","-58.4944704","corte-amplio","72","Villa del Parque","2013-12-26 13:41:38"
"Villa Ballester, Buenos Aires, Argentina","-34.5492357","-58.5588195","corte-amplio","12","General San Martín","2013-12-26 13:42:25"
"Villa Luro - Buenos Aires, Ciudad Autónoma de Buenos Aires, Argentina","-34.6333333","-58.5","corte-amplio","72","Villa Luro","2013-12-26 13:42:35"
"Av San Martín 4900, Buenos Aires, Ciudad Autónoma de Buenos Aires, Argentina","-34.5974776","-58.487137","hay-luz",\N,"Villa del Parque","2013-12-26 13:42:59"
"Olleros 1828, Buenos Aires, Ciudad Autónoma de Buenos Aires, Argentina","-34.5655398","-58.4385596","hay-luz",\N,"Palermo","2013-12-26 13:43:31"
"Virrey del Pino, Buenos Aires, Ciudad Autónoma de Buenos Aires, Argentina","-34.5691109","-58.4574776","hay-luz",\N,"Colegiales","2013-12-26 13:45:01"
"Matías Sturiza 673, Olivos, Buenos Aires, Argentina","-34.5082416","-58.481853","corte-cuadra","2","Vicente López","2013-12-26 13:45:08"
"Chacabuco 1952, Olivos, Buenos Aires, Argentina","-34.5220632","-58.4920632","corte-cuadra","12","Vicente López","2013-12-26 13:45:33"
"La Pampa 2426, Buenos Aires, Ciudad Autónoma de Buenos Aires, Argentina","-34.5650194","-58.4545034","corte-amplio","10","Belgrano","2013-12-26 13:45:56"
"Habana 4200, Buenos Aires, Ciudad Autónoma de Buenos Aires, Argentina","-34.5990797","-58.5153607","hay-luz",\N,"Villa Devoto","2013-12-26 13:46:00"
"Tucumán 1722, Buenos Aires, Ciudad Autónoma de Buenos Aires, Argentina","-34.6019661","-58.3915678","hay-luz",\N,"San Nicolás","2013-12-26 13:47:00"
"Teodoro García 2376, Buenos Aires, Ciudad Autónoma de Buenos Aires, Argentina","-34.5692326","-58.4453788","corte-cuadra","1","Palermo","2013-12-26 13:47:15"
"Miralla 2300, Buenos Aires, Ciudad Autónoma de Buenos Aires, Argentina","-34.659712","-58.4861721","hay-luz",\N,"Mataderos","2013-12-26 13:47:20"
"Av Belgrano 2049, Buenos Aires, Ciudad Autónoma de Buenos Aires, Argentina","-34.6140638","-58.3953928","hay-luz",\N,"Balvanera","2013-12-26 13:48:36"
"Av Rivadavia 2134, Buenos Aires, Ciudad Autónoma de Buenos Aires, Argentina","-34.6095311","-58.3967152","hay-luz",\N,"Balvanera","2013-12-26 13:49:05"
"San Blas 1700, Buenos Aires, Ciudad Autónoma de Buenos Aires, Argentina","-34.6039085","-58.4660462","corte-amplio","12","Villa Gral. Mitre","2013-12-26 13:49:14"
"Palestina 977, Buenos Aires, Ciudad Autónoma de Buenos Aires, Argentina","-34.599407","-58.4251471","hay-luz",\N,"Almagro","2013-12-26 13:53:08"
"Av Castañares 4781, Buenos Aires, Ciudad Autónoma de Buenos Aires, Argentina","-34.6664682","-58.4723231","corte-amplio","13","Villa Lugano","2013-12-26 13:54:20"
"Córdoba, Argentina","-31.3989296","-64.1821289","hay-luz","2","Córdoba","2013-12-26 13:55:01"
"Moldes 1855, Buenos Aires, Ciudad Autónoma de Buenos Aires, Argentina","-34.5659974","-58.4574615","hay-luz",\N,"Belgrano","2013-12-26 13:55:38"
"Costa Rica 5501, Buenos Aires, Ciudad Autónoma de Buenos Aires, Argentina","-34.5833751","-58.4337198","hay-luz",\N,"Palermo","2013-12-26 13:56:04"
"Nogoyá 2600, Buenos Aires, Ciudad Autónoma de Buenos Aires, Argentina","-34.5997799","-58.4864698","corte-amplio","48","Villa del Parque","2013-12-26 13:56:20"
"Leopoldo Marechal, Buenos Aires, Ciudad Autónoma de Buenos Aires, Argentina","-34.6056332","-58.4392772","hay-luz",\N,"Caballito","2013-12-26 13:56:36"
"San Nicolás 1716, Buenos Aires, Ciudad Autónoma de Buenos Aires, Argentina","-34.6168335","-58.4910162","corte-cuadra","72","Villa Santa Rita","2013-12-26 13:56:53"
"Ituzaingó, Temperley, Buenos Aires, Argentina","-34.764019","-58.3826752","hay-luz",\N,"Lomas de Zamora","2013-12-26 13:56:56"
"Potosí 3868, Buenos Aires, Ciudad Autónoma de Buenos Aires, Argentina","-34.6072767","-58.4209431","hay-luz",\N,"Almagro","2013-12-26 13:57:07"
"Laprida 1072, Buenos Aires, Ciudad Autónoma de Buenos Aires, Argentina","-34.5963811","-58.4085799","corte-cuadra",\N,"Recoleta","2013-12-26 13:57:27"
"Av Gaona 4416, Buenos Aires, Ciudad Autónoma de Buenos Aires, Argentina","-34.6257978","-58.4855686","corte-cuadra","1","Floresta","2013-12-26 13:57:30"
"El Salvador 6033, Buenos Aires, Ciudad Autónoma de Buenos Aires, Argentina","-34.5797407","-58.4397497","corte-amplio","3","Palermo","2013-12-26 13:58:02"
"Hipólito Yrigoyen 577, Buenos Aires, Ciudad Autónoma de Buenos Aires, Argentina","-34.609117","-58.3745497","hay-luz",\N,"Monserrat","2013-12-26 13:58:14"
"Lautaro 637, Buenos Aires, Ciudad Autónoma de Buenos Aires, Argentina","-34.6342548","-58.4543707","corte-cuadra","16","Flores","2013-12-26 14:00:07"
"Olleros 3355, Buenos Aires, Ciudad Autónoma de Buenos Aires, Argentina","-34.5798638","-58.4494342","corte-amplio","2","Colegiales","2013-12-26 14:00:11"
"Costa Rica 5546, Buenos Aires, Ciudad Autónoma de Buenos Aires, Argentina","-34.5830934","-58.4341378","hay-luz",\N,"Palermo","2013-12-26 14:01:31"
"Charlone 474, Buenos Aires, Ciudad Autónoma de Buenos Aires, Argentina","-34.5830425","-58.4509649","hay-luz",\N,"Chacarita","2013-12-26 14:01:53"
"Pedernera 142, Buenos Aires, Ciudad Autónoma de Buenos Aires, Argentina","-34.6309931","-58.4633829","hay-luz",\N,"Flores","2013-12-26 14:01:57"
"Culpina 834, Buenos Aires, Ciudad Autónoma de Buenos Aires, Argentina","-34.6388965","-58.4617039","hay-luz",\N,"Flores","2013-12-26 14:03:37"
"Chile 1790, Buenos Aires, Ciudad Autónoma de Buenos Aires, Argentina","-34.6168782","-58.3915068","hay-luz",\N,"Monserrat","2013-12-26 14:05:18"
"Dr. Pedro Ignacio Rivera, Buenos Aires, Ciudad Autónoma de Buenos Aires, Argentina","-34.5675621","-58.4798088","hay-luz",\N,"Villa Urquiza","2013-12-26 14:05:41"
"Aime Tschiffely, Quilmes Oeste, Buenos Aires, Argentina","-34.7510681","-58.2918358","corte-cuadra","35","Quilmes","2013-12-26 14:05:52"
"Av Estado de Israel 4567, Buenos Aires, Ciudad Autónoma de Buenos Aires, Argentina","-34.5995022","-58.4299","hay-luz",\N,"Villa Crespo","2013-12-26 14:06:10"
"Fernández Edmundo, Piñeiro, Buenos Aires, Argentina","-34.6636772","-58.3821717","corte-amplio","36","Avellaneda","2013-12-26 14:09:03"
"Maza 2146, Parque Patricios, Buenos Aires, Ciudad Autónoma de Buenos Aires, Argentina","-34.6365179","-58.4136772","hay-luz",\N,"Boedo","2013-12-26 14:09:15"
"Morón, Buenos Aires, Argentina","-34.6558611","-58.6167212","corte-amplio","16","Morón","2013-12-26 14:09:38"
"Somellera 5457, Buenos Aires, Ciudad Autónoma de Buenos Aires, Argentina","-34.6740867","-58.4740835","corte-amplio","48","Villa Lugano","2013-12-26 14:09:46"
"Alejandro Dumas, Buenos Aires, Ciudad Autónoma de Buenos Aires, Argentina","-34.6550827","-58.4785271","corte-cuadra","96","Parque Avellaneda","2013-12-26 14:09:50"
"Av de Los Constituyentes 7245, Benavídez, Buenos Aires, Argentina","-34.4121063","-58.7087354","corte-cuadra","4","Tigre","2013-12-26 14:10:04"
"Paunero, Gerli, Buenos Aires, Argentina","-34.6977615","-58.3679657","corte-amplio","36","Lanús","2013-12-26 14:11:39"
"Paunero, Gerli, Buenos Aires, Argentina","-34.6977615","-58.3679657","corte-amplio","36","Lanús","2013-12-26 14:12:34"
"Av Gaona 2087, Buenos Aires, Ciudad Autónoma de Buenos Aires, Argentina","-34.6128717","-58.4569499","corte-cuadra","20","Caballito","2013-12-26 14:12:43"
"Gral. Paunero 767, Sarandí, Buenos Aires, Argentina","-34.686567","-58.3541112","corte-amplio","36","Avellaneda","2013-12-26 14:13:17"
"Pieres 1000, Buenos Aires, Ciudad Autónoma de Buenos Aires, Argentina","-34.6494743","-58.5063075","hay-luz",\N,"Mataderos","2013-12-26 14:15:49"
"Soler 4000, Buenos Aires, Ciudad Autónoma de Buenos Aires, Argentina","-34.5915555","-58.4178629","hay-luz",\N,"Palermo","2013-12-26 14:16:17"
"Av Rivadavia 3585, Buenos Aires, Ciudad Autónoma de Buenos Aires, Argentina","-34.6109097","-58.4171122","corte-cuadra","36","Almagro","2013-12-26 14:17:23"
"Saturnino Segurola, Vicente López, Buenos Aires, Argentina","-34.5241661","-58.4752884","hay-luz",\N,"Vicente López","2013-12-26 14:17:33"
"Tucumán 661, Buenos Aires, Ciudad Autónoma de Buenos Aires, Argentina","-34.6010772","-58.3761928","hay-luz",\N,"San Nicolás","2013-12-26 14:17:36"
"Del Progreso 1031, Buenos Aires, Ciudad Autónoma de Buenos Aires, Argentina","-34.6321012","-58.4391272","hay-luz",\N,"Parque Chacabuco","2013-12-26 14:17:45"
"Vidt, Buenos Aires, Ciudad Autónoma de Buenos Aires, Argentina","-34.5899086","-58.4147225","hay-luz",\N,"Palermo","2013-12-26 14:18:03"
"Int. Soria, Haedo, Buenos Aires, Argentina","-34.6359959","-58.5951996","corte-amplio","16","Morón","2013-12-26 14:18:16"
"Indalecio Gómez, Temperley, Buenos Aires, Argentina","-34.7819023","-58.3860703","hay-luz",\N,"Lomas de Zamora","2013-12-26 14:19:52"
"Av Acoyte 253, Buenos Aires, Ciudad Autónoma de Buenos Aires, Argentina","-34.6152104","-58.4376413","hay-luz",\N,"Caballito","2013-12-26 14:19:56"
"O Higgins 1695, Buenos Aires, Ciudad Autónoma de Buenos Aires, Argentina","-34.5636434","-58.4496623","hay-luz",\N,"Belgrano","2013-12-26 14:20:16"
"Santos Dumont, Buenos Aires, Ciudad Autónoma de Buenos Aires, Argentina","-34.5890999","-58.4503479","hay-luz",\N,"Chacarita","2013-12-26 14:20:24"
"Ramallo 1975, Buenos Aires, Ciudad Autónoma de Buenos Aires, Argentina","-34.5409098","-58.4684265","hay-luz",\N,"Núñez","2013-12-26 14:21:05"
"Capitán Gral. Ramón Freire 400, Buenos Aires, Ciudad Autónoma de Buenos Aires, Argentina","-34.578119","-58.4462638","corte-cuadra","1","Colegiales","2013-12-26 14:22:00"
"Billinghurst 2356, Buenos Aires, Ciudad Autónoma de Buenos Aires, Argentina","-34.5850137","-58.4054348","hay-luz",\N,"Recoleta","2013-12-26 14:22:03"
"Int. C. Amenedo, Burzaco, Buenos Aires, Argentina","-34.8301468","-58.3951912","hay-luz",\N,"Almirante Brown","2013-12-26 14:22:05"
"Campichuelo, Villa Martelli, Buenos Aires, Argentina","-34.5445976","-58.4993744","hay-luz",\N,"Vicente López","2013-12-26 14:22:08"
"Aguirre 243, Buenos Aires, Ciudad Autónoma de Buenos Aires, Argentina","-34.5998216","-58.4336149","hay-luz",\N,"Villa Crespo","2013-12-26 14:22:24"
"Chile 1806, Valentín Alsina, Buenos Aires, Argentina","-34.6672173","-58.4016424","corte-amplio","7","Avellaneda","2013-12-26 14:23:42"
"José C. Paz 1536, Martínez, Buenos Aires, Argentina","-34.4804185","-58.491159","hay-luz",\N,"San Isidro","2013-12-26 14:23:44"
"Barracas - Buenos Aires, Ciudad Autónoma de Buenos Aires, Argentina","-34.65","-58.3833333","corte-amplio","4","Barracas","2013-12-26 14:23:46"
"Biarritz 2632, Buenos Aires, Ciudad Autónoma de Buenos Aires, Argentina","-34.6070387","-58.4801556","corte-amplio","2","Villa del Parque","2013-12-26 14:23:52"
"Monte Castro - Buenos Aires, Ciudad Autónoma de Buenos Aires, Argentina","-34.6166667","-58.5","corte-cuadra","9","Monte Castro","2013-12-26 14:24:12"
"Av del Libertador Gral. San Martín 83, Vicente López, Buenos Aires, Argentina","-34.5338093","-58.4679201","hay-luz",\N,"Vicente López","2013-12-26 14:24:58"
"Av Luis María Campos, Buenos Aires, Ciudad Autónoma de Buenos Aires, Argentina","-34.5693321","-58.4365463","hay-luz",\N,"Palermo","2013-12-26 14:25:42"
"Aviador Earhart 2640, Ciudad Jardín Lomas de Palomar, Buenos Aires, Argentina","-34.6015769","-58.5884756","corte-cuadra","48","Tres de Febrero","2013-12-26 14:25:43"
"Austria 2038, Buenos Aires, Ciudad Autónoma de Buenos Aires, Argentina","-34.5885583","-58.4048005","hay-luz",\N,"Recoleta","2013-12-26 14:25:54"
"Patagones 2827, Parque Patricios, Buenos Aires, Ciudad Autónoma de Buenos Aires, Argentina","-34.6377106","-58.4022737","hay-luz",\N,"Parque Patricios","2013-12-26 14:26:57"
"Serrano 500, Buenos Aires, Ciudad Autónoma de Buenos Aires, Argentina","-34.596394","-58.4426225","corte-amplio","10","Villa Crespo","2013-12-26 14:28:06"
"Moldes 2185, Buenos Aires, Ciudad Autónoma de Buenos Aires, Argentina","-34.5628367","-58.460137","hay-luz",\N,"Belgrano","2013-12-26 14:28:28"
"Delambre, Buenos Aires, Ciudad Autónoma de Buenos Aires, Argentina","-34.6240234","-58.4996071","corte-amplio","68","Vélez Sársfield","2013-12-26 14:28:33"
"Estados Unidos 2259, Buenos Aires, Ciudad Autónoma de Buenos Aires, Argentina","-34.6196245","-58.39827","hay-luz",\N,"San Cristóbal","2013-12-26 14:29:36"
"Juana Manso, Buenos Aires, Ciudad Autónoma de Buenos Aires, Argentina","-34.6081009","-58.3629723","hay-luz",\N,"Puerto Madero","2013-12-26 14:30:38"
"Carlos M. Della Paolera, Buenos Aires, Ciudad Autónoma de Buenos Aires, Argentina","-34.5952034","-58.3717613","hay-luz",\N,"Retiro","2013-12-26 14:30:56"
"Chile 100, Villa Martelli, Buenos Aires, Argentina","-34.5493464","-58.5022582","hay-luz",\N,"Vicente López","2013-12-26 14:31:00"
"Vera 951, Buenos Aires, Ciudad Autónoma de Buenos Aires, Argentina","-34.594992","-58.441461","hay-luz",\N,"Villa Crespo","2013-12-26 14:31:02"
"Monteagudo 150, Parque Patricios, Buenos Aires, Ciudad Autónoma de Buenos Aires, Argentina","-34.6389867","-58.4052568","corte-amplio","72","Parque Patricios","2013-12-26 14:31:05"
"Miralla 55, Buenos Aires, Ciudad Autónoma de Buenos Aires, Argentina","-34.6398718","-58.5112835","corte-cuadra","1","Liniers","2013-12-26 14:31:18"
"César Carrizo 2720, Córdoba, Argentina","-31.3650483","-64.2080909","hay-luz",\N,"Córdoba","2013-12-26 14:31:26"
"Cnel. Warnes 1400, Lanús Oeste, Buenos Aires, Argentina","-34.696731","-58.4102456","corte-amplio","48","Lanús","2013-12-26 14:31:27"
"Espora, Ramos Mejía, Buenos Aires, Argentina","-34.645565","-58.5716515","hay-luz",\N,"La Matanza","2013-12-26 14:31:29"
"Guayra 2060, Buenos Aires, Ciudad Autónoma de Buenos Aires, Argentina","-34.5511311","-58.4618326","hay-luz",\N,"Núñez","2013-12-26 14:31:31"
"Estévez Correa, Temperley, Buenos Aires, Argentina","-34.7815666","-58.3919487","hay-luz",\N,"Lomas de Zamora","2013-12-26 14:31:43"
"Lavalle 1874, Buenos Aires, Ciudad Autónoma de Buenos Aires, Argentina","-34.6032028","-58.3935948","corte-amplio","8","Balvanera","2013-12-26 14:31:43"
"Derqui 1621, Quilmes, Buenos Aires, Argentina","-34.7330554","-58.2336483","corte-cuadra","5","Quilmes","2013-12-26 14:31:46"
"Carhué 279, Temperley, Buenos Aires, Argentina","-34.7569019","-58.3714598","corte-amplio","2","Lomas de Zamora","2013-12-26 14:31:47"
"Av José María Moreno 63, Buenos Aires, Ciudad Autónoma de Buenos Aires, Argentina","-34.6189773","-58.436132","hay-luz",\N,"Caballito","2013-12-26 14:31:49"
"García de Cossio 5822, Buenos Aires, Ciudad Autónoma de Buenos Aires, Argentina","-34.6420422","-58.5108864","corte-cuadra","1","Liniers","2013-12-26 14:31:57"
"Teodoro García, Buenos Aires, Ciudad Autónoma de Buenos Aires, Argentina","-34.573101","-58.4482918","hay-luz",\N,"Colegiales","2013-12-26 14:32:02"
"Lavalle 750, Buenos Aires, Ciudad Autónoma de Buenos Aires, Argentina","-34.6023514","-58.3773825","hay-luz",\N,"San Nicolás","2013-12-26 14:32:13"
"Tinogasta 4900, Buenos Aires, Ciudad Autónoma de Buenos Aires, Argentina","-34.6122603","-58.5152387","hay-luz",\N,"Villa Devoto","2013-12-26 14:32:16"
"A. Rojas, Monte Grande, Buenos Aires, Argentina","-34.8203125","-58.4758416","hay-luz",\N,"Esteban Echeverría","2013-12-26 14:32:24"
"Paraguay 2670, Buenos Aires, Ciudad Autónoma de Buenos Aires, Argentina","-34.5970886","-58.4060906","hay-luz",\N,"Recoleta","2013-12-26 14:32:29"
"Núñez, Crucesita, Buenos Aires, Argentina","-34.6649895","-58.3453465","hay-luz",\N,"Avellaneda","2013-12-26 14:32:33"
"Tres Arroyos 3769, Buenos Aires, Ciudad Autónoma de Buenos Aires, Argentina","-34.6232886","-58.4858334","hay-luz",\N,"Floresta","2013-12-26 14:32:41"
"Venezuela 4400, Buenos Aires, Ciudad Autónoma de Buenos Aires, Argentina","-34.6182205","-58.4272941","hay-luz",\N,"Almagro","2013-12-26 14:32:51"
"Ruta Provincial 25, Buenos Aires, Argentina","-34.610939","-58.8132935","corte-cuadra","1","Moreno","2013-12-26 14:32:58"
"Aldo Emir Jofre 2029, Bernal Oeste, Buenos Aires, Argentina","-34.7228685","-58.3179636","hay-luz",\N,"Quilmes","2013-12-26 14:33:06"
"Hernandarias 1400, Remedios de Escalada, Buenos Aires, Argentina","-34.7253057","-58.4125134","hay-luz",\N,"Lanús","2013-12-26 14:33:11"
"Balcarce 50, Buenos Aires, Ciudad Autónoma de Buenos Aires, Argentina","-34.6082913","-58.3708367","corte-amplio","4","Monserrat","2013-12-26 14:33:18"
"Dr. Pozzo 764, Bernal Oeste, Buenos Aires, Argentina","-34.723257","-58.3084327","hay-luz",\N,"Quilmes","2013-12-26 14:33:27"
"Av Curapaligue 441, Buenos Aires, Ciudad Autónoma de Buenos Aires, Argentina","-34.6299818","-58.4518958","hay-luz","168","Flores","2013-12-26 14:33:28"
"Luis Piedra Buena, Rafael Calzada, Buenos Aires, Argentina","-34.7799683","-58.3500462","hay-luz",\N,"Almirante Brown","2013-12-26 14:33:31"
"Colombres 417, Buenos Aires, Ciudad Autónoma de Buenos Aires, Argentina","-34.6176618","-58.4182765","hay-luz",\N,"Almagro","2013-12-26 14:33:48"
"Alvarez Jonte, Ramos Mejía, Buenos Aires, Argentina","-34.6395912","-58.5675926","corte-cuadra","2","La Matanza","2013-12-26 14:33:58"
"Florencio Varela, Temperley, Buenos Aires, Argentina","-34.7831268","-58.3851242","hay-luz",\N,"Lomas de Zamora","2013-12-26 14:34:01"
"Av Segurola 1188, Buenos Aires, Ciudad Autónoma de Buenos Aires, Argentina","-34.6247774","-58.4940117","corte-cuadra","24","Vélez Sársfield","2013-12-26 14:34:32"
"García de Río, Temperley, Buenos Aires, Argentina","-34.7832832","-58.3925248","hay-luz",\N,"Lomas de Zamora","2013-12-26 14:34:35"
"Berazategui, Buenos Aires, Argentina","-34.762001","-58.2112961","hay-luz",\N,"Berazategui","2013-12-26 14:34:38"
"Ciudad de la Paz 350, Buenos Aires, Ciudad Autónoma de Buenos Aires, Argentina","-34.5741535","-58.4418854","hay-luz",\N,"Palermo","2013-12-26 14:34:57"
"Av Paseo Colón 713, Buenos Aires, Ciudad Autónoma de Buenos Aires, Argentina","-34.616009","-58.3694832","hay-luz",\N,"San Telmo","2013-12-26 14:34:57"
"Alvarez Jonte, Ramos Mejía, Buenos Aires, Argentina","-34.6395912","-58.5675926","hay-luz",\N,"La Matanza","2013-12-26 14:35:08"
"Av Gaona 2634, Buenos Aires, Ciudad Autónoma de Buenos Aires, Argentina","-34.6154164","-58.4634699","hay-luz",\N,"Flores","2013-12-26 14:35:14"
"Yatay 12, Buenos Aires, Ciudad Autónoma de Buenos Aires, Argentina","-34.61427","-58.4277053","hay-luz",\N,"Almagro","2013-12-26 14:35:17"
"Gral. Juan José Valle, Morón, Buenos Aires, Argentina","-34.6516571","-58.6253128","hay-luz",\N,"Morón","2013-12-26 14:35:24"
"Fitz Roy 957, Buenos Aires, Ciudad Autónoma de Buenos Aires, Argentina","-34.5900713","-58.4436456","hay-luz",\N,"Chacarita","2013-12-26 14:35:40"
"Paroissien 2322, Buenos Aires, Ciudad Autónoma de Buenos Aires, Argentina","-34.5462852","-58.4689729","hay-luz",\N,"Núñez","2013-12-26 14:35:50"
"Combatientes de Malvinas, Buenos Aires, Ciudad Autónoma de Buenos Aires, Argentina","-34.5799771","-58.4754332","hay-luz",\N,"Parque Chas","2013-12-26 14:36:01"
"Prilidiano Pueyrredón 4115, Buenos Aires, Ciudad Autónoma de Buenos Aires, Argentina","-34.6503082","-58.4715884","corte-amplio","24","Parque Avellaneda","2013-12-26 14:36:14"
"Juan B. Ambrosetti 174, Buenos Aires, Ciudad Autónoma de Buenos Aires, Argentina","-34.6157609","-58.4362708","corte-amplio","36","Caballito","2013-12-26 14:37:14"
"Av Maipú 2391, Olivos, Buenos Aires, Argentina","-34.5133953","-58.4891988","hay-luz",\N,"Vicente López","2013-12-26 14:37:21"
"Darwin 1163, Buenos Aires, Ciudad Autónoma de Buenos Aires, Argentina","-34.5899586","-58.4400282","hay-luz",\N,"Villa Crespo","2013-12-26 14:37:31"
"Diag. 166 6213, Loma Hermosa, Buenos Aires, Argentina","-34.5574229","-58.6034748","corte-amplio","12","General San Martín","2013-12-26 14:37:37"
"Evaristo Iglesias, Ezpeleta, Buenos Aires, Argentina","-34.7399597","-58.2333794","corte-amplio","1","Quilmes","2013-12-26 14:37:45"
"Virrey Cevallos 422, Buenos Aires, Ciudad Autónoma de Buenos Aires, Argentina","-34.6138749","-58.3889583","hay-luz",\N,"Monserrat","2013-12-26 14:37:52"
"Av Olivera 350, Buenos Aires, Ciudad Autónoma de Buenos Aires, Argentina","-34.639803","-58.4862547","hay-luz",\N,"Vélez Sársfield","2013-12-26 14:38:02"
"Caracas 50, Buenos Aires, Ciudad Autónoma de Buenos Aires, Argentina","-34.6278464","-58.4614804","corte-amplio","121","Flores","2013-12-26 14:38:24"
"Sarmiento 3902, Buenos Aires, Ciudad Autónoma de Buenos Aires, Argentina","-34.6051079","-58.419756","corte-cuadra","4","Almagro","2013-12-26 14:38:36"
"Av Belgrano 3440, Buenos Aires, Ciudad Autónoma de Buenos Aires, Argentina","-34.6155883","-58.4149271","corte-cuadra","12","Almagro","2013-12-26 14:38:37"
"Alpatacal 3245, Santos Lugares, Buenos Aires, Argentina","-34.6030841","-58.5404966","corte-cuadra","60","Tres de Febrero","2013-12-26 14:38:46"
"Calle 10, Berazategui Oeste, Buenos Aires, Argentina","-34.775095","-58.2455978","hay-luz",\N,"Berazategui","2013-12-26 14:40:23"
"Av la Plata 1117, Buenos Aires, Ciudad Autónoma de Buenos Aires, Argentina","-34.6285021","-58.4264428","hay-luz",\N,"Parque Chacabuco","2013-12-26 14:40:34"
"Cnel. Bosch 402, Avellaneda, Buenos Aires, Argentina","-34.6579051","-58.3780521","hay-luz",\N,"Avellaneda","2013-12-26 14:40:41"
"Gral. César Díaz 3260, Buenos Aires, Ciudad Autónoma de Buenos Aires, Argentina","-34.6168654","-58.483599","corte-cuadra","20","Villa Santa Rita","2013-12-26 14:40:53"
"Av Díaz Vélez 3800, Buenos Aires, Ciudad Autónoma de Buenos Aires, Argentina","-34.6085583","-58.420046","hay-luz",\N,"Almagro","2013-12-26 14:40:54"
"Mario Bravo 331, Buenos Aires, Ciudad Autónoma de Buenos Aires, Argentina","-34.6064565","-58.4171906","corte-cuadra","16","Almagro","2013-12-26 14:41:07"
"Jean Jaures 343, Buenos Aires, Ciudad Autónoma de Buenos Aires, Argentina","-34.6061072","-58.4097064","corte-cuadra","24","Balvanera","2013-12-26 14:41:43"
"Av del Libertador 8000, Buenos Aires, Ciudad Autónoma de Buenos Aires, Argentina","-34.5415923","-58.463214","corte-cuadra","130","Núñez","2013-12-26 14:41:44"
"Av Rivadavia 3118, Buenos Aires, Ciudad Autónoma de Buenos Aires, Argentina","-34.6104522","-58.4105804","corte-cuadra","192","Balvanera","2013-12-26 14:41:47"
"La Plata, Buenos Aires, Argentina","-34.92125","-57.9543333","hay-luz",\N,"La Plata","2013-12-26 14:42:05"
"Calle 10 4980, Berazategui, Buenos Aires, Argentina","-34.756682","-58.2103558","hay-luz",\N,"Berazategui","2013-12-26 14:42:30"
